,사업장명,지번주소,도로명주소,위도,경도,인허가일자,인허가취소일자,영업상태코드,폐업일자,휴업시작일자,휴업종료일자,재개업일자,데이터갱신일자,업태구분명,한실수,양실수,욕실수
0,어반스테이 명동,서울특별시 중구 인현동1가 158,"서울특별시 중구 충무로 24, 3~17층 (인현동1가)",,,2021-01-15,,1,,,,,2022-12-03 00:03:00.0,숙박업(생활),,,
1,오요5(oYo5),서울특별시 중구 남산동2가 35-2,"서울특별시 중구 퇴계로18길 43, 지층, 1~2층 (남산동2가)",37.5589341416416,126.984837685013,2019-08-02,,1,,,,,2022-12-03 00:03:00.0,관광호텔,,,
2,더스테이클래식호텔,서울특별시 중구 남대문로3가 94,서울특별시 중구 남대문로 27 (남대문로3가),37.5614803705066,126.978524755613,2023-03-13,,1,,,,,2022-12-02 23:05:00.0,숙박업(생활),,,
3,오요5롯지A(oYo5LodgeA),서울특별시 중구 남산동2가 33-3 1~2층,"서울특별시 중구 퇴계로18길 41 (남산동2가, 1~2층)",37.5591075118053,126.98498104754,2017-04-26,,1,,,,,2022-12-03 00:03:00.0,숙박업 기타,,,
4,오요5롯지B(oYo5LodgeB),"서울특별시 중구 남산동2가 33 1,2층","서울특별시 중구 퇴계로18길 37 (남산동2가, 1,2층)",37.5592217658029,126.985040669975,2017-04-26,,1,,,,,2022-12-03 00:03:00.0,관광호텔,,,
5,인구로스페이스,서울특별시 구로구 구로동 141-6,서울특별시 구로구 도림로19길 8 (구로동),37.4900208931672,126.891328339661,1975-12-20,,1,,,,,2022-12-03 00:03:00.0,여인숙업,,,
6,타임모텔,서울특별시 서대문구 대현동 104-40,서울특별시 서대문구 연세로2길 98 (대현동),37.5569826989057,126.942111433988,1990-12-24,,1,,,,,2022-12-02 23:01:00.0,여관업,,,
7,베스테이린,서울특별시 관악구 봉천동 866-4,서울특별시 관악구 남부순환로220길 34 (봉천동),37.4797547069873,126.951435011192,1986-07-15,,1,,,,,2022-12-03 00:04:00.0,일반호텔,,,
8,더문 호텔,서울특별시 영등포구 영등포동3가 17-9,서울특별시 영등포구 영중로8길 13 (영등포동3가),37.5185618190377,126.90713337896,2003-02-26,,1,,,,,2022-12-03 00:09:00.0,일반호텔,,,
9,유모텔,서울특별시 강북구 미아동 42-206,서울특별시 강북구 월계로3길 3-5 (미아동),37.6097926813623,127.03088628932,1980-07-22,,1,,,,,2022-12-03 00:09:00.0,여관업,,,
10,하이빌모텔,서울특별시 강북구 미아동 160-22,서울특별시 강북구 덕릉로28길 26 (미아동),37.633518705826,127.024093962613,1978-04-21,,1,,,,,2022-12-03 00:09:00.0,여관업,,,
11,호텔야자 강서구청점,서울특별시 강서구 화곡동 24-60,서울특별시 강서구 화곡로 248-8 (화곡동),37.5471981777424,126.846387539476,2000-07-13,,1,,,,,2022-12-02 23:01:00.0,일반호텔,,,
12,호텔레츠,서울특별시 서대문구 창천동 20-76,서울특별시 서대문구 신촌로 125-5 (창천동),37.5564225998198,126.939693095053,1997-08-04,,1,,,,,2022-12-02 23:02:00.0,여관업,,,
13,조아장,서울특별시 영등포구 영등포동3가 10-26,서울특별시 영등포구 영중로2길 5 (영등포동3가),37.5169888062022,126.907195053131,2018-10-11,,1,,,,,2022-12-02 23:05:00.0,여관업,,,
14,대영호텔,서울특별시 중구 회현동1가 89-2,"서울특별시 중구 퇴계로10길 20-8, 4층 (회현동1가)",37.5583680964916,126.980302879448,19710521,,1,,,,,2021-12-03 22:04:00.0,여관업,,,
15,포도모텔,서울특별시 관악구 신림동 1422-31,서울특별시 관악구 신림로64길 16 (신림동),37.4849043523653,126.930701662968,1986-11-15,,1,,,,,2022-12-02 23:06:00.0,여관업,,,
16,메리제인,서울특별시 송파구 문정동 61-15 메리제인호텔,"서울특별시 송파구 송파대로20길 6 (문정동, 메리제인호텔)",37.4856475497424,127.123557162241,2023-03-07,,1,,,,,2022-12-02 23:08:00.0,관광호텔,,,
17,르컬렉티브 서울서초,서울특별시 서초구 서초동 1595-1 지젤시그니티 서초,서울특별시 서초구 효령로53길 50 (서초동),37.4870648484546,127.013771375182,2022-11-22,,1,,,,,2022-12-04 00:05:00.0,숙박업(생활),,,
18,지젤 스위트룸 서초(ZIZEL SUITE ROOM SEOCHO),서울특별시 서초구 서초동 1595-1 지젤시그니티 서초,"서울특별시 서초구 효령로53길 50, 지젤시그니티 서초 (서초동)",37.4870648484546,127.013771375182,2023-01-30,,1,,,,,2022-12-05 00:07:00.0,숙박업(생활),,,
19,파이프 호스텔,서울특별시 중구 장충동1가 58-5,서울특별시 중구 동호로24길 42 (장충동1가),37.5611690008201,127.005673248399,2003-02-26,,1,,,,,2022-12-02 00:04:00.0,여관업,,,
20,하얀장,서울특별시 금천구 독산동 296-35,서울특별시 금천구 시흥대로123길 44 (독산동),37.4713949834431,126.896047869182,19830316,,1,,,,,2021-12-03 23:02:00.0,여관업,,,
21,The S HOTEL(더 에스 호텔),"서울특별시 서초구 서초동 1317-9 ,10호 2층~6층","서울특별시 서초구 서초대로77길 11, 2층~6층 (서초동)",,,19790302,,3,20220531,,,,2021-12-06 00:04:00.0,여관업,,,
22,조이 게스트하우스,서울특별시 중구 장충동2가 74,서울특별시 중구 퇴계로56가길 2 (장충동2가),37.5616934785484,127.005514266325,2002-01-21,,1,,,,,2022-12-03 00:05:00.0,여관업,,,
23,E 호텔,서울특별시 서초구 서초동 1593-1 외 2필 1층~9층,"서울특별시 서초구 반포대로18길 40, 1층~9층 (서초동)",37.4869723547246,127.012607755046,20000114,,3,20220920,,,,2021-12-08 22:03:00.0,일반호텔,,,
24,호텔벤,서울특별시 강남구 역삼동 718-28,서울특별시 강남구 언주로87길 41 (역삼동),37.5007098055431,127.039884937468,19780809,,1,,,,,2021-12-02 21:01:00.0,여관업,,,
25,M(엠)모텔,서울특별시 동대문구 신설동 89-89,서울특별시 동대문구 하정로 48 (신설동),37.5752885550365,127.026873689606,19000303,,1,,,,,2021-11-01 23:04:00.0,여관업,,,
26,Blue맨션,서울특별시 마포구 노고산동 57-31,서울특별시 마포구 신촌로18길 15-6 (노고산동),37.5546741874981,126.935220242188,19750423,,3,20220406,,,,2021-12-04 00:09:00.0,여관업,,,
27,붐(BOOM)모텔,서울특별시 강북구 미아동 35-29,서울특별시 강북구 도봉로 34-7 (미아동),37.6123488511151,127.030642026316,19721201,,1,,,,,2021-12-03 22:00:00.0,여관업,,,
28,호스텔 바닐라 2,서울특별시 종로구 숭인동 66-8번지 ,서울특별시 종로구 종로57길 34-8 (숭인동),37.5749210766837,127.016329393985,19701026,,1,,,,,2019-06-06 02:40:00.0,여관업,10.0,0.0,10.0
29,미니호텔달콤1,서울특별시 종로구 창신동 449-1번지 ,서울특별시 종로구 종로48길 26-4 (창신동),37.5710604844949,127.0118801362,19861201,,1,,,,,2018-08-31 23:59:59.0,여인숙업,12.0,0.0,1.0
30,나그네 하우스,서울특별시 종로구 체부동 64,서울특별시 종로구 자하문로1나길 6 (체부동),37.5767817846754,126.971635081943,1999-11-15,,1,,,,,2022-12-03 00:08:00.0,여관업,,,
31,하임 1호점,서울특별시 강서구 화곡동 937-22,서울특별시 강서구 월정로20길 12 (화곡동),37.5295757595412,126.839248492012,2023-03-20,,1,,,,,2022-12-02 22:02:00.0,여관업,,,
32,하임 2호점,서울특별시 강서구 화곡동 937-23,서울특별시 강서구 월정로20길 14 (화곡동),37.5295440509219,126.839385791717,2023-03-20,,1,,,,,2022-12-02 22:02:00.0,여관업,,,
33,에이치에비뉴 호텔 건대점,서울특별시 광진구 화양동 24-15,서울특별시 광진구 동일로 156 (화양동),37.5460366737783,127.066568344155,2018-01-05,,1,,,,,2022-12-02 23:05:00.0,관광호텔,,,
34,스테이션 호텔,서울특별시 구로구 구로동 500-20,서울특별시 구로구 구로중앙로 135-4 (구로동),37.4998784902225,126.882981403692,1975-06-20,,1,,,,,2022-12-02 23:05:00.0,여인숙업,,,
35,부흥,서울특별시 동작구 노량진동 211-47 외1필지,"서울특별시 동작구 만양로14길 20 (노량진동,외1필지)",37.5116671951986,126.945453817995,1971-06-30,,3,2023-03-13,,,,2022-12-02 23:05:00.0,여관업,,,
36,카누,서울특별시 은평구 응암동 749-49,서울특별시 은평구 응암로12길 11-6 (응암동),37.5880363079374,126.918346752024,1971-09-03,,3,2023-03-27,,,,2022-12-04 23:00:00.0,여관업,,,
37,나무호텔,서울특별시 광진구 광장동 327-1,서울특별시 광진구 아차산로76가길 12 (광장동),37.5473112429539,127.107200169131,2023-01-31,,1,,,,,2022-12-02 00:02:00.0,관광호텔,,,
38,써니게스트하우스 서울시티,서울특별시 중구 을지로3가 5-14 2~5층,"서울특별시 중구 충무로9길 41 (을지로3가, 2~5층)",37.5667002137125,126.990157417213,2016-12-15,,3,2023-03-21,,,,2022-12-02 22:03:00.0,숙박업 기타,,,
39,서울엔호스텔,"서울특별시 중구 오장동 139-20 삼덕빌딩 4,5,6층","서울특별시 중구 동호로 343, 4,5,6층 (오장동, 삼덕빌딩)",,,2015-03-11,,3,2023-03-21,,,,2022-12-02 22:03:00.0,숙박업 기타,,,
40,에로스,서울특별시 관악구 신림동 1433-105,서울특별시 관악구 남부순환로 1591-8 (신림동),37.4844807640547,126.927214753328,1986-01-07,,1,,,,,2022-12-02 22:03:00.0,여관업,,,
41,리츠,서울특별시 중랑구 면목동 170-1,서울특별시 중랑구 동일로 567 (면목동),37.5809919174248,127.07923979939,1983-09-08,,1,,,,,2022-12-02 22:03:00.0,여관업,,,
42,홈즈남산,서울특별시 중구 필동1가 43-1,"서울특별시 중구 충무로 3, 3~19층 (필동1가)",,,2023-03-21,,1,,,,,2022-12-03 21:00:00.0,숙박업(생활),,,
43,샤-인,서울특별시 강북구 미아동 775-26,서울특별시 강북구 솔매로 62-3 (미아동),37.6246837277324,127.019155917485,19701228,,1,,,,,2021-12-05 23:00:00.0,여관업,,,
44,르서울호텔,서울특별시 중구 북창동 13-2,"서울특별시 중구 남대문로1길 56, 3~9층 (북창동)",,,2023-02-01,,1,,,,,2022-12-02 00:04:00.0,일반호텔,,,
45,우주 남산점,서울특별시 중구 남산동2가 36-6 1~2층,"서울특별시 중구 소공로6길 29 (남산동2가, 1~2층)",37.5586040972384,126.984766562845,20170215,,1,,,,,2021-12-06 00:04:00.0,관광호텔,,,
46,로카우스호텔,서울특별시 용산구 한강로3가 40-708,서울특별시 용산구 한강대로23길 25 (한강로3가),37.5276397334571,126.964349149383,2023-03-22,,1,,,,,2022-12-02 22:04:00.0,관광호텔,,,
47,레미,서울특별시 강동구 길동 449-2,서울특별시 강동구 진황도로 92-7 (길동),37.5357334620212,127.136483459194,19990507,,1,,,,,2021-12-05 23:07:00.0,여관업,,,
48,하이스테이 종로 1233,서울특별시 종로구 숭인동 1233,서울특별시 종로구 보문로 15-1 (숭인동),37.5771071357,127.022968731687,1988-07-21,,1,,,,,2022-12-02 22:04:00.0,여관업,,,
49,독립문호텔,"서울특별시 종로구 교북동 1-12 45,43","서울특별시 종로구 통일로 220 (교북동,45,43)",37.5727219336799,126.960195889012,19690621,,1,,,,,2021-12-08 22:08:00.0,여관업,,,
50,더퍼스트스테이 호텔,서울특별시 강서구 마곡동 797-12,서울특별시 강서구 마곡동로4길 23 (마곡동),37.5596431100254,126.836199032381,20170214,,1,,,,,2021-12-07 21:01:00.0,숙박업(생활),,,
51,라마다앙코르서울마곡,서울특별시 강서구 마곡동 760-1 (힐스테이트 에코 마곡나루역),"서울특별시 강서구 마곡중앙로 161-11, 지하1~14층 (마곡동, 가양1동, 힐스테이트 에코 마곡나루역)",37.5679745986878,126.826720979429,20170118,,3,20220405,,,,2021-12-04 00:07:00.0,숙박업(생활),,,
52,휴모텔,서울특별시 금천구 가산동 42-20,서울특별시 금천구 벚꽃로40길 26 (가산동),37.4823741750001,126.88426008908,1973-09-10,,1,,,,,2022-12-02 22:04:00.0,여인숙업,,,
53,호텔컬리넌건대,서울특별시 광진구 군자동 350-6,서울특별시 광진구 동일로 212 (군자동),37.5505530355034,127.069050355206,20150921,,1,,,,,2021-10-31 00:02:00.0,관광호텔,,,
54,신라스테이,서울특별시 동작구 신대방동 698 신라스테이해링턴타워,"서울특별시 동작구 시흥대로 596 (신대방동, 신라스테이해링턴타워)",37.4856282661036,126.904310488692,20160202,,1,,,,,2021-12-03 23:02:00.0,관광호텔,,,
55,코트야드 메리어트 서울 보타닉파크,서울특별시 강서구 마곡동 766-1 메리어트호텔,"서울특별시 강서구 마곡중앙12로 10, 메리어트호텔 (마곡동)",37.5669742928759,126.829428553472,20180503,,1,,,,,2021-11-01 23:04:00.0,관광호텔,,,
56,라이프 인 을지로,서울특별시 중구 을지로3가 291-45 2층,"서울특별시 중구 충무로 54-3, 2층 (을지로3가)",37.5660351259604,126.993083336867,20151201,,1,,,,,2021-11-01 22:05:00.0,여관업,,,
57,만남모텔,서울특별시 종로구 숭인동 1127번지 ,서울특별시 종로구 보문로1길 7-20 (숭인동),37.5761375234119,127.022301318789,19670822,,1,,,,,2019-11-17 02:40:00.0,여관업,10.0,0.0,10.0
58,호스텔 케이팝,서울특별시 중구 인현동1가 94-1,"서울특별시 중구 마른내로 53, 3~7층 (인현동1가)",,,2023-02-03,,1,,,,,2022-12-03 00:09:00.0,일반호텔,,,
59,오월호텔(OWALL HOTEL),서울특별시 강남구 역삼동 723-3,"서울특별시 강남구 언주로85길 27, 지상3~지상9층 (역삼동)",37.5005805580112,127.041063158531,2018-03-02,,1,,,,,2022-12-02 22:05:00.0,관광호텔,,,
60,사월호텔,서울특별시 강남구 역삼동 720-12,서울특별시 강남구 언주로89길 13 (역삼동),37.5016923957401,127.041843537901,2010-06-17,,1,,,,,2022-12-02 22:05:00.0,일반호텔,,,
61,호텔마리,서울특별시 강남구 역삼동 720-14,서울특별시 강남구 언주로87길 10 (역삼동),37.5016478895041,127.042087452721,2002-07-24,,1,,,,,2022-12-02 22:05:00.0,여관업,,,
62,부킹용산닷컴1(Booking Yongsan.com1),서울특별시 용산구 남영동 37-1,서울특별시 용산구 한강대로84길 11-10 (남영동),37.5439760185241,126.973488224669,1964-05-12,,1,,,,,2022-12-02 22:05:00.0,여관업,,,
63,맥스,서울특별시 도봉구 창동 9-2 정일프라자 상가 6층,"서울특별시 도봉구 노해로 381, 정일프라자 상가동 6층 (창동)",37.6525380775264,127.050465602278,1997-09-25,,1,,,,,2022-12-03 22:03:00.0,여관업,,,
64,호텔 Story,서울특별시 강동구 천호동 328-10,서울특별시 강동구 선사로 78 (천호동),,,20020225,,3,20220622,,,,2021-12-05 22:05:00.0,여관업,,,
65,호텔 골든파크 명동,서울특별시 중구 충무로4가 148-1,"서울특별시 중구 퇴계로37길 14, 10층 (충무로4가)",37.5619342012504,126.99400151833,2023-03-23,,1,,,,,2022-12-02 22:05:00.0,일반호텔,,,
66,하운드호텔,서울특별시 관악구 봉천동 866-1,서울특별시 관악구 관악로15길 17 (봉천동),37.4801321524583,126.951247200936,2023-02-08,,1,,,,,2022-12-01 23:00:00.0,일반호텔,,,
67,유에이치스위트 더명동3,서울특별시 중구 충무로2가 12-8,"서울특별시 중구 명동8가길 51, 2,3,4층 (충무로2가)",,,2023-04-06,,1,,,,,2022-12-03 22:07:00.0,숙박업(생활),,,
68,호텔 아카데미하우스,서울특별시 강북구 수유동 산 76 아카데미하우스,"서울특별시 강북구 4.19로 135, 아카데미하우스 (수유동)",37.6416929978165,127.001722448429,19661229,,1,,,,,2021-12-05 22:05:00.0,관광호텔,,,
69,호텔아르누보서초,서울특별시 서초구 서초동 1680-1 ~4호 2층~19층,"서울특별시 서초구 서초대로 357, 2층~19층 (서초동)",37.4961685551687,127.020483215725,20150721,,3,20221006,,,,2021-10-31 00:08:00.0,숙박업(생활),,,
70,남대문호텔 앤 스위트,"서울특별시 중구 순화동 151 (지상 1층, 지상 5층~지상 25층)","서울특별시 중구 칠패로 27 (순화동,(지상 1층, 지상 5층~지상 25층))",37.5602669008102,126.972035325682,20100930,,3,20220330,,,,2021-12-03 23:03:00.0,일반호텔,,,
71,아이 호텔,서울특별시 영등포구 영등포동1가 121-1,서울특별시 영등포구 경인로108길 10 (영등포동1가),37.5171330042127,126.911469393708,20050819,,3,20220330,,,,2021-12-04 00:02:00.0,일반호텔,,,
72,필름37.2호텔,서울특별시 노원구 상계동 702-3,서울특별시 노원구 상계로 26 (상계동),37.654887986411,127.057987039989,20050216,,1,,,,,2021-12-03 23:03:00.0,여관업,,,
73,밀호텔,서울특별시 동대문구 답십리동 542-6,서울특별시 동대문구 황물로 56 (답십리동),37.5724190890516,127.047419527584,20030310,,3,20220401,,,,2021-12-04 00:03:00.0,여관업,,,
74,카카오모텔,서울특별시 송파구 방이동 47-2,서울특별시 송파구 오금로11길 47-16 (방이동),37.5161521248405,127.112984569339,20030227,,3,20220415,,,,2021-12-03 23:07:00.0,여관업,,,
75,멜리샤 호텔,서울특별시 강남구 역삼동 825-29,서울특별시 강남구 테헤란로2길 15 (역삼동),37.4972382423088,127.029389778968,20021001,,1,,,,,2021-12-04 00:02:00.0,여관업,,,
76,글로벌인 동대문 시티데이즈 인,서울특별시 종로구 창신동 460-1번지 ,"서울특별시 종로구 종로48길 12, 1,2층 (창신동)",,,20150320,,1,,,,,2020-06-17 02:40:00.0,일반호텔,0.0,29.0,0.0
77,별궁여관,서울특별시 종로구 숭인동 178-49번지 ,서울특별시 종로구 종로65가길 17 (숭인동),37.5749461306812,127.019274711459,19710710,,1,,,,,2018-08-31 23:59:59.0,여인숙업,12.0,0.0,1.0
78,스테이 인 블루,서울특별시 중구 충무로4가 148-1,"서울특별시 중구 퇴계로37길 14, 8층 (충무로4가)",37.5619342012504,126.99400151833,2023-03-23,,1,,,,,2022-12-02 22:05:00.0,일반호텔,,,
79,호텔 아이보리,서울특별시 중구 충무로4가 148-1,"서울특별시 중구 퇴계로37길 14, 9층 (충무로4가)",37.5619342012504,126.99400151833,2023-03-23,,1,,,,,2022-12-02 22:05:00.0,일반호텔,,,
80,웰빙,서울특별시 송파구 석촌동 295-8,서울특별시 송파구 가락로 119 (석촌동),37.5018195790828,127.109151531868,2003-02-27,,3,2023-03-29,,,,2022-12-02 21:01:00.0,여관업,,,
81,해피 모텔,서울특별시 송파구 삼전동 38-5,서울특별시 송파구 삼전로2길 11 (삼전동),37.5013402409902,127.086157841705,2003-02-27,,3,2023-03-30,,,,2022-12-04 00:01:00.0,여관업,,,
82,아트앤 스테이 종암,서울특별시 성북구 종암동 3-1235,서울특별시 성북구 종암로22길 7 (종암동),37.5998607479008,127.034636108825,1973-11-07,,1,,,,,2022-12-04 00:01:00.0,여관업,,,
83,서초인투라온호텔앤레지던스,서울특별시 서초구 서초동 1595-1 지젤시그니티 서초,"서울특별시 서초구 효령로53길 50, 지젤시그니티 서초 (서초동)",37.4870648484546,127.013771375182,2022-11-28,,1,,,,,2022-12-04 00:07:00.0,숙박업(생활),,,
84,호텔 베르누이,서울특별시 구로구 오류동 31-277 호텔 베르누이,"서울특별시 구로구 경인로 229 (오류동, 호텔 베르누이)",37.4974347629415,126.845972051135,2014-12-05,,1,,,,,2022-12-04 00:02:00.0,관광호텔,,,
85,하이스테이 강동43,서울특별시 강동구 길동 413-14,서울특별시 강동구 진황도로43길 3 (길동),37.5357935663962,127.138104350324,2011-12-30,,1,,,,,2022-12-04 00:02:00.0,여관업,,,
86,포포인츠 바이 쉐라톤 서울 구로,서울특별시 구로구 구로동 1128-1,서울특별시 구로구 디지털로32길 72 (구로동),37.4831837029804,126.898856674536,2010-11-25,,1,,,,,2022-12-04 00:02:00.0,관광호텔,,,
87,이프모텔,서울특별시 강동구 길동 413-43,서울특별시 강동구 양재대로109길 11 (길동),37.536153614004,127.13863577332,1985-06-19,,1,,,,,2022-12-04 00:02:00.0,여관업,,,
88,휴호텔,서울특별시 강남구 논현동 116,"서울특별시 강남구 학동로43길 8, 지상3~5층 (논현동)",37.5166294605324,127.037462121204,1983-02-23,,1,,,,,2022-12-04 00:02:00.0,여관업,,,
89,혜화여관,서울특별시 종로구 명륜4가 162-3,서울특별시 종로구 대학로11길 37 (명륜4가),37.5822318804027,126.999580995386,1978-08-28,,1,,,,,2022-12-04 00:02:00.0,여관업,,,
90,구로제이에스호스텔,서울특별시 구로구 가리봉동 135-25,서울특별시 구로구 남부순환로105길 32 (가리봉동),37.4795068234169,126.891005748124,2018-08-30,,1,,,,,2022-12-04 00:02:00.0,관광호텔,,,
91,바모스하우스,서울특별시 구로구 가리봉동 135-30 바모스하우스,"서울특별시 구로구 남부순환로105다길 12, 바모스하우스 (가리봉동)",37.4796596862038,126.891257421343,2018-06-27,,1,,,,,2022-12-04 00:02:00.0,숙박업(생활),,,
92,메이필드호텔,서울특별시 강서구 외발산동 426,서울특별시 강서구 방화대로 94 (외발산동),37.5478957237892,126.819507121486,20020705,,1,,,,,2021-12-03 22:02:00.0,관광호텔,,,
93,위코스테이 동대문,서울특별시 중구 쌍림동 25-16,"서울특별시 중구 퇴계로53길 8, 2~10층 (쌍림동)",,,2023-03-31,,1,,,,,2022-12-04 00:05:00.0,숙박업(생활),,,
94,은성,서울특별시 성북구 정릉동 771-28,서울특별시 성북구 보국문로 149-6 (정릉동),37.6161965456645,127.004381897298,2002-05-01,,3,2023-02-14,,,,2022-12-01 23:06:00.0,여관업,,,
95,종로하루,서울특별시 종로구 원남동 233 종로하루,"서울특별시 종로구 창경궁로21가길 5-3, 종로하루 (원남동)",37.5749736025031,126.99655206599,2023-02-16,,1,,,,,2022-12-01 23:08:00.0,숙박업(생활),,,
96,모텔봄 남구로점,서울특별시 구로구 구로동 705-26,서울특별시 구로구 구로동로25길 26 (구로동),37.490696684325,126.882516854068,19960424,,1,,,,,2021-12-06 23:04:00.0,여관업,,,
97,호텔굳타임,서울특별시 서대문구 대현동 104-41,서울특별시 서대문구 신촌로 145 (대현동),37.5568159299718,126.942122993715,20000927,,1,,,,,2021-12-04 00:07:00.0,여관업,,,
98,제일모텔,서울특별시 구로구 구로동 733-7,서울특별시 구로구 구로동로22길 17-5 (구로동),37.4897156849941,126.885470754041,19981215,,1,,,,,2021-12-04 22:05:00.0,여인숙업,,,
99,메트로21,서울특별시 관악구 남현동 602-14,서울특별시 관악구 승방2길 7 (남현동),37.4741434731563,126.981001499028,19991116,,1,,,,,2021-12-03 23:04:00.0,여관업,,,
100,스테이다다 왕십리점,서울특별시 성동구 도선동 360,"서울특별시 성동구 무학로 2 (도선동, 360)",37.5644427215751,127.030270155789,20021108,,1,,,,,2021-10-30 22:00:00.0,여관업,,,
101,젠모텔,서울특별시 성동구 도선동 117-0,서울특별시 성동구 왕십리로22길 11-6 (도선동),,,19941230,,3,20220421,,,,2021-12-03 22:03:00.0,여관업,,,
102,노원모텔,서울특별시 노원구 상계동 703-1,서울특별시 노원구 노해로75길 14-7 (상계동),37.6545494279044,127.05774086453,19891223,,1,,,,,2021-12-03 22:03:00.0,여관업,,,
103,썬파크모텔,서울특별시 성동구 도선동 115-0,서울특별시 성동구 왕십리로22길 13 (도선동),,,19891107,,3,20220421,,,,2021-12-03 22:03:00.0,여관업,,,
104,브라운스위트 신촌 센트럴,서울특별시 마포구 노고산동 57-26 신촌센트럴코업레지던스 3~14층,"서울특별시 마포구 서강로 137, 신촌센트럴코업레지던스 3~14층 (노고산동)",37.5546682650878,126.935593828622,2022-12-27,,1,,,,,2022-12-04 00:05:00.0,숙박업(생활),,,
105,가든파크,서울특별시 구로구 오류동 55-57,서울특별시 구로구 경인로22길 8 (오류동),37.4956298006808,126.844202844116,19881230,,1,,,,,2021-12-06 23:04:00.0,여관업,,,
106,알게호(Rgeho),서울특별시 종로구 낙원동 111-4번지 ,서울특별시 종로구 수표로28길 12-3 (낙원동),37.5730416078269,126.989218041687,19890503,,1,,,,,2018-08-31 23:59:59.0,여관업,0.0,16.0,15.0
107,이파리 숙소,서울특별시 은평구 응암동 733-5,서울특별시 은평구 가좌로7나길 15 (응암동),37.5850400457321,126.918984385974,1973-12-24,,1,,,,,2022-12-04 00:05:00.0,여관업,,,
108,더쉐어(The Share),서울특별시 중구 인현동1가 158,서울특별시 중구 충무로 24 (인현동1가),37.5634061273569,126.993402762749,2021-02-01,,1,,,,,2022-12-04 00:02:00.0,숙박업(생활),,,
109,동신,서울특별시 종로구 낙원동 283-14,서울특별시 종로구 인사동길 22-7 (낙원동),,,1988-09-21,,3,2023-04-25,,,,2022-12-03 22:07:00.0,여관업,,,
110,위코스테이 남산,서울특별시 중구 필동1가 43-1,"서울특별시 중구 충무로 3, 3~5, 7~20층 (필동1가)",,,2023-03-31,,1,,,,,2022-12-03 23:03:00.0,숙박업(생활),,,
111,강남패밀리 호텔,"서울특별시 강남구 논현동 205-8 지상2,3,4,5,6,12,13(각층전체)","서울특별시 강남구 봉은사로 143 (논현동, 지상2,3,4,5,6,12,13(각층전체))",37.5064762326282,127.030192560403,2015-07-27,,1,,,,,2022-12-04 00:09:00.0,숙박업(생활),,,
112,온앤오프,서울특별시 강북구 수유동 48-26,서울특별시 강북구 덕릉로24길 10 (수유동),37.6340808029062,127.021926858465,1993-04-22,,1,,,,,2022-12-02 22:05:00.0,여관업,,,
113,스텝인 명동1,서울특별시 중구 명동1가 7-1,"서울특별시 중구 명동길 55, 12층,13층,14층 (명동1가)",37.5641417024991,126.985394525951,2014-11-24,,1,,,,,2022-12-04 00:06:00.0,일반호텔,,,
114,유림,서울특별시 중랑구 면목동 120-13,서울특별시 중랑구 겸재로 171-1 (면목동),37.5884448281043,127.086692809105,1970-10-06,,1,,,,,2022-12-04 00:06:00.0,여관업,,,
115,태양장,서울특별시 성동구 마장동 797-84,서울특별시 성동구 마조로19길 13 (마장동),37.5649341760939,127.040078182352,1983-03-23,,1,,,,,2022-12-04 00:08:00.0,여관업,,,
116,달동네모텔,서울특별시 강북구 미아동 36-11,서울특별시 강북구 월계로3길 46 (미아동),37.6117967084954,127.031390779495,1981-12-10,,3,2023-04-07,,,,2022-12-04 00:09:00.0,여관업,,,
117,제이디타워 레지던스,서울특별시 중구 오장동 139-1,"서울특별시 중구 동호로 347, 7층~11층 (오장동)",37.5653499228279,127.002062970653,2023-02-22,,1,,,,,2022-12-01 22:05:00.0,숙박업(생활),,,
118,금성장,서울특별시 강동구 성내동 434-22,서울특별시 강동구 성안로 40 (성내동),37.5272747005326,127.130656522275,1982-07-12,,1,,,,,2022-12-05 00:05:00.0,여관업,,,
119,(주)호텔롯데롯데시티호텔마포,서울특별시 마포구 공덕동 467,서울특별시 마포구 마포대로 109 (공덕동),37.5451188164137,126.950886259458,2009-02-23,,1,,,,,2022-12-01 22:05:00.0,관광호텔,,,
120,더코노셔,서울특별시 영등포구 여의도동 15-13 호텔 더 디자이너스 여의도,"서울특별시 영등포구 국회대로68길 24, 라포르테 블랑 여의도 (여의도동)",37.5282491675236,126.920128182176,2022-10-25,,1,,,,,2022-12-01 23:06:00.0,숙박업(생활),,,
121,위코스테이 명동,서울특별시 중구 충무로4가 334,"서울특별시 중구 창경궁로1길 14, 3층~15층 (충무로4가)",37.562914973022,126.997556569684,20220516,,1,,,,,2021-11-01 00:07:00.0,숙박업(생활),,,
122,엠앤럭키호텔,서울특별시 종로구 돈의동 155 엠앤럭키 호텔(M&LUCKY HOTEL),"서울특별시 종로구 수표로22길 38, 엠앤럭키 호텔(M&LUCKY HOTEL) 지하1~지상10층 (돈의동)",37.571343824201,126.990899607545,20200428,,1,,,,,2021-12-04 23:08:00.0,일반호텔,,,
123,S모텔,서울특별시 양천구 신월동 83-4,"서울특별시 양천구 가로공원로 157, 1~3층 (신월동)",,,19890722,,3,20220331,,,,2021-12-04 00:02:00.0,여관업,,,
124,동일여인숙,서울특별시 중구 황학동 753-28,서울특별시 중구 퇴계로83길 9-14 (황학동),37.5662141820934,127.01841244643,2003-02-26,,3,2023-04-06,,,,2022-12-04 00:08:00.0,여인숙업,,,
125,HOTEL RAUM,서울특별시 도봉구 쌍문동 716-37,서울특별시 도봉구 도봉로 613 (쌍문동),37.6594820163204,127.040730061945,1983-08-03,,1,,,,,2022-12-04 00:08:00.0,여관업,,,
126,금성여관,서울특별시 영등포구 신길동 162-7,서울특별시 영등포구 도신로 223-2 (신길동),37.5121401457352,126.915856299737,2003-02-26,,3,2023-04-10,,,,2022-12-03 23:02:00.0,여관업,,,
127,민하우스,서울특별시 관악구 신림동 504-6,서울특별시 관악구 조원로 132 (신림동),37.4852547882808,126.916921480265,1982-07-02,,1,,,,,2022-12-03 23:02:00.0,여관업,,,
128,제일모텔,서울특별시 강북구 수유동 7-10 은정장여관,"서울특별시 강북구 수유로 70, 은정장여관 (수유동)",37.6359767610006,127.021357086626,2020-04-16,,1,,,,,2022-12-03 22:06:00.0,여관업,,,
129,청아여관,서울특별시 강서구 화곡동 937-26,서울특별시 강서구 월정로20길 22 (화곡동),37.5295619385731,126.83981905705,1991-07-05,,1,,,,,2022-12-03 22:03:00.0,여관업,,,
130,수호텔,서울특별시 강북구 수유동 47-63,서울특별시 강북구 덕릉로19길 4 (수유동),37.634763003453,127.020568669357,1985-09-02,,1,,,,,2022-12-03 22:03:00.0,일반호텔,,,
131,하모니호텔,서울특별시 강동구 길동 387-1,서울특별시 강동구 천중로40길 63 (길동),37.5382213978271,127.138106564881,2014-07-24,,1,,,,,2022-12-03 23:06:00.0,관광호텔,,,
132,어반스테이 부티크 익선,서울특별시 종로구 익선동 53,"서울특별시 종로구 돈화문로11나길 53, 1~9층 (익선동)",,,2023-04-24,,1,,,,,2022-12-05 00:03:00.0,숙박업(생활),,,
133,모투모텔,서울특별시 강남구 논현동 218-25,서울특별시 강남구 언주로 627 (논현동),37.5125186276695,127.035125393879,1995-12-11,,3,2023-04-19,,,,2022-12-03 22:01:00.0,여관업,,,
134,가온,서울특별시 영등포구 양평동1가 31-5 가온,"서울특별시 영등포구 선유로24길 3-3, 가온 (양평동1가)",37.523091799966,126.890720537727,20220530,,1,,,,,2021-12-05 23:00:00.0,관광호텔,,,
135,코업시티호텔,서울특별시 구로구 오류동 55-42 코업시티호텔 스테이코,"서울특별시 구로구 경인로20가길 19 (오류동, 코업시티호텔 스테이코)",37.4958258370612,126.844870419445,2013-11-04,,1,,,,,2022-12-01 23:07:00.0,숙박업(생활),,,
136,우성장여인숙,서울특별시 구로구 구로동 416-25,"서울특별시 구로구 구로동로 170, 2층 (구로동)",37.4937611566923,126.883393966211,1971-08-03,,1,,,,,2022-12-05 00:03:00.0,여인숙업,,,
137,자딘관광호텔,,서울특별시 영등포구 영신로34길 33 (영등포동4가),37.5191523842744,126.904705011374,2015-12-08,,1,,,,,2022-12-03 22:06:00.0,관광호텔,,,
138,성남,서울특별시 강동구 천호동 410-7,서울특별시 강동구 천호대로159길 45 (천호동),37.539533116524,127.128074798035,2003-02-25,,1,,,,,2022-12-03 22:03:00.0,여관업,,,
139,3에스(S)호텔(불광점),서울특별시 은평구 대조동 15-52,서울특별시 은평구 통일로65길 6 (대조동),37.6091753010871,126.9301989688,2003-01-22,,1,,,,,2022-12-03 22:03:00.0,일반호텔,,,
140,3에스(S)호텔,서울특별시 금천구 독산동 1008-10,서울특별시 금천구 시흥대로 353 (독산동),37.4652539565216,126.897170241021,2005-07-20,,1,,,,,2022-12-03 22:06:00.0,일반호텔,,,
141,은실,서울특별시 노원구 상계동 101-25,서울특별시 노원구 덕릉로115나길 9 (상계동),37.667172607068,127.077842574924,1969-07-28,,3,2023-04-28,,,,2022-12-03 21:00:00.0,여인숙업,,,
142,성수스테이,서울특별시 성동구 송정동 66-170,서울특별시 성동구 광나루로9길 6 (송정동),37.5487115948494,127.063893508997,2003-02-14,,1,,,,,2022-12-05 00:04:00.0,여관업,,,
143,송림,서울특별시 동대문구 용두동 20-68,서울특별시 동대문구 고산자로34길 34 (용두동),37.5778644622239,127.040299752761,1968-01-19,,1,,,,,2022-12-05 00:04:00.0,여관업,,,
144,와이키키,서울특별시 강서구 화곡동 899-30,서울특별시 강서구 곰달래로 118 (화곡동),37.5303687874793,126.846054030681,1999-06-11,,3,2023-04-24,,,,2022-12-03 22:06:00.0,여관업,,,
145,워커힐,서울특별시 광진구 광장동 22-1,서울특별시 광진구 워커힐로 177 (광장동),37.5586287308609,127.11170683593,1964-04-03,,1,,,,,2022-12-05 00:07:00.0,관광호텔,,,
146,유니온 모텔,서울특별시 중구 신당동 110-5,서울특별시 중구 다산로44길 3-5 (신당동),37.5652060463287,127.017295371127,19601228,,1,,,,,2021-12-03 22:04:00.0,여관업,,,
147,삼화,서울특별시 구로구 구로동 414-30,서울특별시 구로구 구로동로35길 13 (구로동),37.4936265380219,126.882839179109,19691001,,1,,,,,2021-12-02 21:00:00.0,여인숙업,,,
148,골든프라자,서울특별시 강서구 화곡동 921-4,서울특별시 강서구 월정로20길 47 (화곡동),37.5298941009293,126.841260021265,1999-07-14,,1,,,,,2022-12-03 22:07:00.0,여관업,,,
149,하나장,서울특별시 종로구 숭인동 1407,서울특별시 종로구 난계로29길 19-7 (숭인동),37.5740273120131,127.022258352149,1988-08-30,,1,,,,,2022-12-05 00:07:00.0,여관업,,,
150,쉐르빌,서울특별시 강북구 미아동 37-16,서울특별시 강북구 월계로3길 42-1 (미아동),37.611705722584,127.031338189283,1980-07-25,,3,2023-05-04,,,,2022-12-05 00:07:00.0,여관업,,,
151,업플로 호스텔,서울특별시 서초구 서초동 1670-15 영남빌딩 1층~5층,"서울특별시 서초구 서초대로56길 18, 영남빌딩 1층~5층 (서초동)",37.493728456958,127.017023200977,2018-02-13,,1,,,,,2022-12-04 23:00:00.0,관광호텔,,,
152,조은호텔 서울명동,서울특별시 중구 충무로1가 24-1 3층~17층,"서울특별시 중구 퇴계로 115 (충무로1가, 3층~17층)",37.56105243357,126.984514234793,2015-01-28,,3,2023-05-08,,,,2022-12-04 23:00:00.0,일반호텔,,,
153,프로방스 HoTel,서울특별시 영등포구 영등포동3가 24,서울특별시 영등포구 영등포로46길 7-6 (영등포동3가),37.5184663818301,126.908143522907,2003-02-26,,1,,,,,2022-12-04 23:00:00.0,여관업,,,
154,에이치 에비뉴호텔역삼,서울특별시 강남구 역삼동 678-14 에이치에비뉴호텔 역삼,"서울특별시 강남구 테헤란로29길 12, 1~10층 (역삼동, 에이치에비뉴호텔 역삼)",,,20141002,,1,,,,,2021-12-06 00:04:00.0,관광호텔,,,
155,스톡홀름,서울특별시 성북구 동선동3가 41-1,서울특별시 성북구 동소문로28길 46 (동선동3가),,,19630809,,3,20220518,,,,2021-12-04 23:09:00.0,여관업,,,
156,황평,서울특별시 중구 주교동 111-0번지 ,,37.5681807754198,126.998969947142,19601230,,3,19950926,,,,2018-08-31 23:59:59.0,여인숙업,0.0,0.0,0.0
157,플렉스(FLEX),서울특별시 서대문구 창천동 29-59,서울특별시 서대문구 연세로2길 15-4 (창천동),37.5562239852799,126.937888121572,19951115,,1,,,,,2021-12-04 22:05:00.0,여관업,,,
158,랑뷰티크호텔(RANG BEAUTIQUE HOTEL),"서울특별시 강서구 화곡동 24-63 ,592","서울특별시 강서구 화곡로42길 3-6 (화곡동,,592)",37.5469100113002,126.846089840138,19911022,,1,,,,,2021-12-03 22:07:00.0,여관업,,,
159,비욘드 스위트(BEYOND SUITE),서울특별시 서대문구 대현동 101-9,서울특별시 서대문구 이화여대1길 42-3 (대현동),37.5573486711432,126.943385628285,2022-08-03,,1,,,,,2022-12-02 00:09:00.0,휴양콘도미니엄업,,,
160,메이호텔,서울특별시 성북구 삼선동4가 9-6,서울특별시 성북구 동소문로8길 23 (삼선동4가),37.588917518209,127.01033044614,19640618,,1,,,,,2021-12-03 22:07:00.0,여관업,,,
161,호텔포레스타,서울특별시 송파구 잠실동 180-7,서울특별시 송파구 백제고분로7길 23-6 (잠실동),37.5109647355251,127.08164771193,20171219,,1,,,,,2021-12-04 22:02:00.0,관광호텔,,,
162,신라스테이 서대문,서울특별시 서대문구 미근동 163,서울특별시 서대문구 충정로 76 (미근동),37.5653581996986,126.964770918721,20150428,,1,,,,,2021-12-03 22:08:00.0,관광호텔,,,
163,대금장,서울특별시 도봉구 도봉동 600-2,서울특별시 도봉구 도봉로165길 7 (도봉동),37.6773446617046,127.044497537675,19760220,,3,20220524,,,,2021-12-04 22:06:00.0,여관업,,,
164,삼보장,서울특별시 은평구 대조동 15-55번지 ,,,,19841120,,3,20060217,,,,2018-08-31 23:59:59.0,여관업,5.0,4.0,5.0
165,서광여관,서울특별시 영등포구 대림동 987-5,서울특별시 영등포구 시흥대로181길 7 (대림동),37.4901786369936,126.906235775305,20030226,,1,,,,,2021-12-03 21:00:00.0,여인숙업,,,
166,메리엘,서울특별시 강북구 수유동 47-23,서울특별시 강북구 덕릉로 69 (수유동),37.634762960031,127.021320825169,1990-10-30,,1,,,,,2022-12-04 23:01:00.0,여관업,,,
167,넘버25호텔 동대문점,서울특별시 중구 광희동1가 182-30,"서울특별시 중구 을지로44길 17-7, 1~5층 (광희동1가)",37.5652625240652,127.006878220898,20210504,,1,,,,,2021-12-09 00:07:00.0,숙박업 기타,,,
168,티파니,서울특별시 은평구 대조동 15-84,서울특별시 은평구 통일로65길 24 (대조동),37.6090265278164,126.928361440772,20010111,,1,,,,,2021-12-05 23:07:00.0,여관업,,,
169,바오게스트하우스,서울특별시 중구 오장동 139-6,"서울특별시 중구 동호로 339, 2,3층 (오장동)",,,20220907,,1,,,,,2021-11-02 00:07:00.0,숙박업 기타,,,
170,유에이치스위트 서울스퀘어,서울특별시 중구 태평로2가 68-6,"서울특별시 중구 남대문로1길 43, 2~5층 (태평로2가)",,,2022-11-17,,1,,,,,2022-12-01 23:02:00.0,숙박업(생활),,,
171,호텔 컬리넌 왕십리,서울특별시 성동구 도선동 86,서울특별시 성동구 무학로2길 47 (도선동),37.5626480372113,127.034809476118,20140414,,1,,,,,2021-12-08 23:01:00.0,관광호텔,,,
172,HOTEL KOTA(호텔코타),,"서울특별시 종로구 종로 294, 4층 (창신동)",37.5712625089941,127.010715368227,20150128,,3,20221114,,,,2021-10-31 23:06:00.0,일반호텔,,,
173,온천 모텔,"서울특별시 영등포구 영등포동3가 21-2 (3층,4층)","서울특별시 영등포구 영중로4길 9-2 (영등포동3가,(3층,4층))",37.5174153444238,126.907543939792,20030226,,1,,,,,2021-12-08 23:07:00.0,여관업,,,
174,녹은 모텔,서울특별시 종로구 낙원동 92,서울특별시 종로구 삼일대로26길 10 (낙원동),37.5730482305613,126.988739997184,2006-03-30,,1,,,,,2022-12-02 00:09:00.0,여관업,,,
175,어니언(onion),서울특별시 용산구 동빙고동 162-2,서울특별시 용산구 서빙고로 295 (동빙고동),37.5211172850885,126.996026494686,19920528,,1,,,,,2021-12-06 00:08:00.0,여관업,,,
176,서초 게스트하우스K,서울특별시 서초구 방배동 437-20 (1층),서울특별시 서초구 방배천로16길 11-9 (방배동),37.4824947680262,126.983526913215,19710423,,3,20220404,,,,2021-12-04 00:07:00.0,여인숙업,,,
177,아라호텔,서울특별시 종로구 숭인동 200-36,서울특별시 종로구 난계로29길 60 (숭인동),37.5737576946775,127.019960969588,1986-09-30,,1,,,,,2022-12-02 00:04:00.0,여관업,,,
178,명신,서울특별시 중구 을지로6가 18-106번지 ,,,,19741030,,3,19970210,,,,2018-08-31 23:59:59.0,여관업,0.0,0.0,0.0
179,랑 호텔(RANG Hotel),서울특별시 중구 중림동 128-40,서울특별시 중구 청파로 431 (중림동),37.5581159384536,126.969095441404,2020-09-21,,1,,,,,2022-12-04 00:08:00.0,숙박업 기타,,,
180,영빈장,서울특별시 동작구 흑석동 102-67,서울특별시 동작구 서달로13길 5-19 (흑석동),37.507742402922,126.961965956167,19700723,,1,,,,,2021-12-04 00:08:00.0,여관업,,,
181,엘케이 호스텔,서울특별시 종로구 종로5가 214-4,서울특별시 종로구 종로 232-5 (종로5가),37.5706271087527,127.003576324655,2004-08-17,,1,,,,,2022-12-03 22:07:00.0,일반호텔,,,
182,온천장여관,서울특별시 성북구 보문동7가 22-1,서울특별시 성북구 보문로 58-3 (보문동7가),37.5809067828063,127.022156131895,19670311,,1,,,,,2021-12-06 00:09:00.0,여관업,,,
183,(주)호텔롯데L7명동,서울특별시 중구 충무로2가 62-12,서울특별시 중구 퇴계로 137 (충무로2가),37.5614055611346,126.986976104616,2016-01-12,,1,,,,,2022-12-01 22:06:00.0,관광호텔,,,
184,제이오너 호스텔,서울특별시 중구 회현동2가 42-10,"서울특별시 중구 소공로6나길 8, 1층,2층 (회현동2가)",37.5580447864609,126.983631395352,20220401,,1,,,,,2021-12-04 00:03:00.0,관광호텔,,,
185,그린파크,서울특별시 종로구 숭인동 296-23,서울특별시 종로구 종로56길 14 (숭인동),37.5725249560456,127.016437202434,20010206,,1,,,,,2021-12-06 23:07:00.0,여관업,,,
186,데이지하우스,서울특별시 중구 남대문로5가 624,"서울특별시 중구 후암로58길 21, 3층 (남대문로5가)",37.5543489921867,126.974942541392,20201015,,3,20220314,,,,2021-12-03 23:05:00.0,숙박업(생활),,,
187,아난티 앳 강남,서울특별시 강남구 논현동 74-6,"서울특별시 강남구 논현로 734, 지하2층~지상11층 (논현동)",37.5175465879491,127.029533933539,20220608,,1,,,,,2021-12-05 23:00:00.0,관광호텔,,,
188,호텔 그레이스리 서울,서울특별시 중구 남대문로4가 17-19,서울특별시 중구 세종대로12길 12 (남대문로4가),37.5616267501713,126.976921027876,20180823,,1,,,,,2021-12-03 22:02:00.0,관광호텔,,,
189,(주)꼬모까사,서울특별시 중구 인현동1가 158,"서울특별시 중구 충무로 24, 3~4, 6~10, 12~17층 (인현동1가)",,,2021-04-26,,1,,,,,2022-12-01 23:05:00.0,숙박업(생활),,,
190,오요호스텔 명동 3,서울특별시 중구 명동2가 4-2,"서울특별시 중구 명동10길 35-20, 4,5층 (명동2가)",,,20190201,,1,,,,,2021-12-05 23:00:00.0,여관업,,,
191,르코지,서울특별시 중구 남대문로5가 17-2,서울특별시 중구 세종대로 24-1 (남대문로5가),37.5585209633904,126.974486847876,2015-12-28,,1,,,,,2022-12-01 23:09:00.0,여관업,,,
192,오요호스텔 명동 1,서울특별시 중구 명동2가 32-2 3~4층,"서울특별시 중구 명동8길 21-7, 3~4층 (명동2가)",37.5629157785479,126.985167943232,20160415,,1,,,,,2021-12-05 23:00:00.0,일반호텔,,,
193,(주)호텔롯데 롯데시티호텔명동,서울특별시 중구 장교동 22-4,서울특별시 중구 삼일대로 362 (장교동),37.5669486979331,126.988088144293,2016-01-07,,1,,,,,2022-12-01 22:06:00.0,관광호텔,,,
194,오요호스텔 동대문1,서울특별시 종로구 효제동 233-3,"서울특별시 종로구 대학로2길 25-2, 2-4층 (효제동)",37.5716611820872,127.003540037579,19860203,,1,,,,,2021-12-05 23:00:00.0,여관업,,,
195,브라운도트 역삼,서울특별시 강남구 역삼동 677-16,"서울특별시 강남구 테헤란로37길 13-5, 지상1층~11층 (역삼동)",37.5028451432202,127.040286199577,20220321,,1,,,,,2021-12-05 23:02:00.0,일반호텔,,,
196,토이 게스트하우스,서울특별시 종로구 창신동 457-11,서울특별시 종로구 종로52길 18-6 (창신동),37.5713072086067,127.013274766772,19690619,,1,,,,,2021-11-01 23:08:00.0,여인숙업,,,
197,스테이코,서울특별시 용산구 용산동3가 1-57,서울특별시 용산구 한강대로62나길 16-13 (용산동3가),37.534199201614,126.974840442712,19650302,,1,,,,,2021-12-05 23:02:00.0,여관업,,,
198,골든모텔,서울특별시 강서구 화곡동 936-3,서울특별시 강서구 곰달래로16길 26 (화곡동),37.5290061413684,126.840107264712,2022-09-23,,3,2023-03-16,,,,2022-12-02 23:08:00.0,여관업,,,
199,에덴장,서울특별시 중랑구 상봉동 88-72,서울특별시 중랑구 봉우재로33길 82 (상봉동),37.5954717530244,127.089825763637,19880930,,1,,,,,2021-12-05 23:06:00.0,여관업,,,
200,렉스관광호텔,서울특별시 강남구 논현동 18-2,서울특별시 강남구 강남대로 588 (논현동),37.5143684033869,127.020531849716,20040217,,1,,,,,2021-12-05 23:07:00.0,관광호텔,,,
201,한블레싱(Hanblessing),서울특별시 중구 남대문로5가 624,"서울특별시 중구 후암로58길 21, 3,4층 (남대문로5가)",,,20200728,,1,,,,,2021-12-08 00:07:00.0,숙박업(생활),,,
202,신라스테이 마포,서울특별시 마포구 도화동 570,"서울특별시 마포구 마포대로 83 (도화동, 신라스테이마포 )",37.5428764511925,126.949701420335,20150831,,1,,,,,2021-12-04 00:01:00.0,관광호텔,,,
203,호텔 퍼스트스테이 명동(Hotel firststay myeongdong),서울특별시 중구 태평로2가 70-2,서울특별시 중구 세종대로 66 (태평로2가),37.5621446807267,126.976654434183,20030725,,1,,,,,2021-12-05 23:09:00.0,여관업,,,
204,호텔 룩홈(Look Home),서울특별시 중구 남산동2가 27-12,서울특별시 중구 퇴계로20길 32-10 (남산동2가),37.5583624964583,126.985866247213,2018-05-11,,1,,,,,2022-12-01 23:02:00.0,숙박업 기타,,,
205,썬모텔,서울특별시 관악구 신림동 1423-6,서울특별시 관악구 봉천로12길 55 (신림동),,,20150420,,3,20220421,,,,2021-12-03 22:03:00.0,여관업,,,
206,호텔 행복,서울특별시 종로구 창신동 459-14,서울특별시 종로구 종로48길 29-2 (창신동),37.5713467783904,127.012294144612,20010921,,1,,,,,2021-12-08 22:08:00.0,여인숙업,,,
207,이후 브릿지 호텔,서울특별시 영등포구 양평동2가 40-5,서울특별시 영등포구 영등포로 9 (양평동2가),37.5237413609198,126.882582480984,20141218,,1,,,,,2021-12-02 21:01:00.0,관광호텔,,,
208,맹그로브 동대문,서울특별시 중구 광희동2가 238-1 2층~15층,"서울특별시 중구 퇴계로 334, 2층~15층층 (광희동2가)",37.5641228221932,127.008722376639,20141031,,1,,,,,2021-12-05 22:03:00.0,관광호텔,,,
209,티마크그랜드호텔명동,서울특별시 중구 회현동1가 194-15 4~18층,"서울특별시 중구 퇴계로 52, 4~18층 (회현동1가)",,,2016-05-23,,3,2023-02-15,,,,2022-12-01 23:07:00.0,관광호텔,,,
210,폼 호텔,서울특별시 송파구 잠실동 176-9 모텔 폼,"서울특별시 송파구 백제고분로7길 7-13, 모텔 폼 (잠실동)",37.5105153667823,127.079591078385,2022-11-30,,3,2023-02-17,,,,2022-12-01 23:09:00.0,일반호텔,,,
211,호텔 더디자이너스 홍대,서울특별시 마포구 서교동 373-9,서울특별시 마포구 양화로 86 (서교동),37.5519076070635,126.917618565024,20141029,,1,,,,,2021-12-04 00:01:00.0,관광호텔,,,
212,봄 호텔,서울특별시 송파구 잠실동 176-1 다비드호텔,"서울특별시 송파구 백제고분로7길 3-16, 다비드호텔 (잠실동)",37.5104994583201,127.079398782259,2022-11-30,,3,2023-02-17,,,,2022-12-01 23:09:00.0,일반호텔,,,
213,리츠모텔,서울특별시 은평구 불광동 285-24,서울특별시 은평구 통일로 712-4 (불광동),37.6095094221051,126.93133234115,20030702,,1,,,,,2021-12-05 22:03:00.0,여관업,,,
214,아비숑,서울특별시 은평구 대조동 15-49,서울특별시 은평구 통일로65길 4 (대조동),,,20000714,,3,20220622,,,,2021-12-05 22:04:00.0,여관업,,,
215,스타즈호텔명동1호점,서울특별시 중구 을지로3가 95-7 2층~10층,"서울특별시 중구 충무로9길 20 (을지로3가, 2층~10층)",37.5670131307092,126.991320298878,20130620,,3,20220412,,,,2021-12-03 23:04:00.0,관광호텔,,,
216,러쉬,서울특별시 강서구 화곡동 904-7,"서울특별시 강서구 강서로5나길 10-3, 1~7층 (화곡동)",37.5288419847672,126.847468390142,19800930,,1,,,,,2021-12-05 22:05:00.0,여관업,,,
217,밀레니엄 힐튼 서울,서울특별시 중구 남대문로5가 395,서울특별시 중구 소월로 50 (남대문로5가),37.5554550838837,126.975500115744,1983-09-16,,3,2022-12-31,,,,2022-12-01 23:06:00.0,관광호텔,,,
218,부르네 모텔,서울특별시 성동구 도선동 110 브르네장여관,"서울특별시 성동구 왕십리로22길 17-1, 1~5층 (도선동)",37.5637131592284,127.034931193751,20201111,,1,,,,,2021-12-07 00:01:00.0,숙박업 기타,,,
219,(주)호텔리안,,서울특별시 종로구 수표로18길 26 (관수동),37.5691314364164,126.990982621581,20140124,,1,,,,,2021-12-06 22:07:00.0,일반호텔,,,
220,제이베이관광호텔,서울특별시 강북구 수유동 174-32,서울특별시 강북구 한천로140길 14 (수유동),37.6405324298745,127.027374516327,20220927,,1,,,,,2021-10-30 23:06:00.0,관광호텔,,,
221,센트럴뷰스위트 주식회사,서울특별시 중구 인현동1가 158,"서울특별시 중구 충무로 24, 4층~13층, 15층~17층 (인현동1가)",37.5634061273569,126.993402762749,2022-09-28,,1,,,,,2022-12-02 21:00:00.0,숙박업(생활),,,
222,(주)호텔롯데,서울특별시 중구 소공동 1,서울특별시 중구 을지로 30 (소공동),37.5653458904198,126.9810075639,1988-08-10,,1,,,,,2022-12-01 23:08:00.0,관광호텔,,,
223,호텔나루,서울특별시 마포구 마포동 450 나루,"서울특별시 마포구 마포대로 8, 나루 (마포동)",37.5373071864777,126.944273138606,2022-09-30,,1,,,,,2022-12-02 23:07:00.0,관광호텔,,,
224,코리아,서울특별시 중구 주교동 96-1번지 ,,37.5686380258769,126.998515356498,19700912,,3,20030226,,,,2018-08-31 23:59:59.0,여관업,0.0,0.0,0.0
225,트레블로지 명동 을지로호텔,서울특별시 중구 을지로2가 101-1,서울특별시 중구 수표로 61 (을지로2가),37.5666115746695,126.989338157869,20150413,,1,,,,,2021-10-31 00:07:00.0,관광호텔,,,
226,캠프관광호텔,서울특별시 양천구 신월동 87-13 비관광호텔,"서울특별시 양천구 가로공원로 167, 캠프관광호텔 지하 1~10층 (신월동)",37.537061442173,126.83454684506,20131014,,1,,,,,2021-11-01 23:05:00.0,관광호텔,,,
227,폼호텔,서울특별시 송파구 잠실동 176-9,서울특별시 송파구 백제고분로7길 7-13 (잠실동),37.5110402960317,127.079451044705,20030227,,3,20220630,,,,2021-12-07 00:02:00.0,일반호텔,,,
228,맥,서울특별시 서대문구 창천동 20-40,서울특별시 서대문구 연세로2길 46 (창천동),37.5563845988022,126.939382347786,19980612,,1,,,,,2021-12-05 22:06:00.0,일반호텔,,,
229,플러스호텔,서울특별시 강동구 천호동 429-9,서울특별시 강동구 올림픽로72길 12 (천호동),37.5397165701864,127.124441654847,20010604,,3,20220421,,,,2021-12-03 22:03:00.0,일반호텔,,,
230,서울,서울특별시 서대문구 남가좌동 289-8,서울특별시 서대문구 수색로4길 3-12 (남가좌동),37.5702940349702,126.914661453254,19700805,,1,,,,,2021-12-05 22:06:00.0,여관업,,,
231,남산힐호텔,서울특별시 중구 회현동1가 142-8 1층~4층,"서울특별시 중구 소공로3길 35 (회현동1가, 1층~4층)",37.5565851791329,126.982435680398,20021015,,1,,,,,2021-12-05 22:09:00.0,여관업,,,
232,살루트호텔,서울특별시 중랑구 상봉동 89,서울특별시 중랑구 망우로52길 16 (상봉동),,,20010418,,3,20220419,,,,2021-12-03 22:00:00.0,일반호텔,,,
233,HOTEL E-CUBE(호텔 이큐브),서울특별시 용산구 갈월동 98-14,서울특별시 용산구 한강대로71길 24 (갈월동),37.540351899,126.972188616222,2006-12-28,,1,,,,,2022-12-03 00:01:00.0,일반호텔,,,
234,쌍성,서울특별시 중구 신당동 349-110번지 ,,,,19681216,,3,19980728,,,,2018-08-31 23:59:59.0,여관업,0.0,0.0,16.0
235,꿈의궁전,서울특별시 중랑구 망우동 147-13,서울특별시 중랑구 망우로 479 (망우동),37.6008587474848,127.10533598517,19830215,,1,,,,,2021-12-07 00:01:00.0,여관업,,,
236,앨리(ALLEY),서울특별시 서대문구 대현동 110-35,서울특별시 서대문구 연세로2마길 20 (대현동),37.5580016347033,126.942291502909,20010326,,1,,,,,2021-12-04 00:07:00.0,일반호텔,,,
237,샤인2,서울특별시 강북구 미아동 775-36,서울특별시 강북구 삼양로54길 7 (미아동),37.6246175251312,127.019032653877,19700801,,1,,,,,2021-12-07 00:01:00.0,여관업,,,
238,경남여인숙,서울특별시 관악구 신림동 808-494,서울특별시 관악구 원신2길 16-5 (신림동),37.4714131963899,126.932284335965,20001017,,1,,,,,2021-12-04 00:03:00.0,여인숙업,,,
239,보성장,서울특별시 강서구 화곡동 358-10,서울특별시 강서구 곰달래로15길 43 (화곡동),37.5320184133553,126.839345186807,20210824,,1,,,,,2021-12-06 23:02:00.0,여관업,,,
240,펜모텔,서울특별시 강북구 미아동 189-32,서울특별시 강북구 덕릉로28길 54 (미아동),37.6322048226653,127.024413581695,19821122,,3,20220708,,,,2021-12-06 23:02:00.0,여관업,,,
241,별장,서울특별시 종로구 낙원동 169-1번지 ,,37.5713218259668,126.989637346294,19801030,,3,20011231,,,,2018-08-31 23:59:59.0,여관업,11.0,0.0,8.0
242,백양,서울특별시 종로구 무악동 45-14번지 ,,,,19830129,,3,19950726,,,,2018-08-31 23:59:59.0,여인숙업,10.0,0.0,1.0
243,이화장여관,서울특별시 광진구 중곡동 117-7,서울특별시 광진구 용마산로 17-1 (중곡동),37.5552925494378,127.088022086455,19811216,,1,,,,,2021-12-06 23:02:00.0,여관업,,,
244,큐티모텔,서울특별시 노원구 공릉동 568-23,서울특별시 노원구 동일로 1035 (공릉동),37.6225448231776,127.073609827299,19811030,,1,,,,,2021-12-06 23:02:00.0,여관업,,,
245,제일장여관,서울특별시 광진구 화양동 18-32,서울특별시 광진구 광나루로 354 (화양동),37.5479484508282,127.06916745162,1983-11-09,,3,2023-02-24,,,,2022-12-01 22:06:00.0,여관업,,,
246,신진,서울특별시 구로구 고척동 173-11,서울특별시 구로구 경서로 82-4 (고척동),37.5037596124097,126.860987261112,19721006,,1,,,,,2021-12-06 23:02:00.0,여인숙업,,,
247,큐,서울특별시 광진구 군자동 478-1,서울특별시 광진구 천호대로 546 (군자동),37.5571538576473,127.078664401829,1983-07-22,,3,2023-02-02,,,,2022-12-02 00:04:00.0,여관업,,,
248,목화장여관,서울특별시 광진구 중곡동 647-16,서울특별시 광진구 능동로 325 (중곡동),,,19830720,,3,20220711,,,,2021-12-06 23:03:00.0,여관업,,,
249,영동장여관,서울특별시 광진구 자양동 203-5,서울특별시 광진구 동일로 36 (자양동),37.5361573396536,127.060994112156,1981-12-31,,1,,,,,2022-12-01 23:01:00.0,여관업,,,
250,성원,서울특별시 종로구 무악동 45-111번지 ,,,,19830129,,3,19970129,,,,2018-08-31 23:59:59.0,여인숙업,10.0,0.0,1.0
251,서초아르누보씨티호텔앤레지던스,서울특별시 서초구 서초동 1680-1 2층~19층(일부),"서울특별시 서초구 서초대로 357, 2층~19층(일부) (서초동)",37.4961685551687,127.020483215725,2022-10-12,,3,2023-03-08,,,,2022-12-02 23:01:00.0,숙박업(생활),,,
252,호텔리젠,서울특별시 은평구 대조동 198-8 호텔리젠,"서울특별시 은평구 연서로26길 3-15, 호텔리젠 (대조동)",37.617282079717,126.920043801517,20221017,,1,,,,,2021-10-30 23:09:00.0,일반호텔,,,
253,호텔 시그니처,서울특별시 동대문구 장안동 372-14,서울특별시 동대문구 장한로21길 8 (장안동),37.5702211940784,127.069764096063,20050107,,1,,,,,2021-12-07 22:01:00.0,여관업,,,
254,HOTEL KYLE(호텔카일),서울특별시 관악구 남현동 1062-16,서울특별시 관악구 남현3길 75 (남현동),37.4756317103457,126.980686609163,20010618,,1,,,,,2021-11-01 22:04:00.0,여관업,,,
255,성림여관,서울특별시 은평구 수색동 371-2,서울특별시 은평구 수색로 269-22 (수색동),,,19660111,,3,20220712,,,,2021-12-06 23:04:00.0,여관업,,,
256,남양,서울특별시 중구 신당동 95-8번지 ,,,,19601228,,3,20030226,,,,2018-08-31 23:59:59.0,여관업,0.0,0.0,0.0
257,럭스,서울특별시 도봉구 도봉동 620-30,서울특별시 도봉구 도봉로 739 (도봉동),37.6705333935538,127.043406124104,19861209,,1,,,,,2021-12-03 22:00:00.0,여관업,,,
258,스트디오93,서울특별시 관악구 신림동 1432-93,서울특별시 관악구 신림로65길 16-4 (신림동),37.4852883214407,126.928665303284,20170829,,3,20221017,,,,2021-10-30 22:00:00.0,관광호텔,,,
259,칠성,서울특별시 동대문구 전농동 643-93,서울특별시 동대문구 답십리로 48-9 (전농동),37.5762443708894,127.046236359151,19660920,,1,,,,,2021-10-30 22:01:00.0,여관업,,,
260,모텔메종,서울특별시 양천구 신정동 953-1 부곡빌딩 3~4층,"서울특별시 양천구 오목로 184, 부곡빌딩 3~4층 (신정동)",37.5250573690883,126.857827247274,19850529,,1,,,,,2021-12-04 00:07:00.0,여관업,,,
261,호텔 DDK,서울특별시 중구 을지로6가 18-59,"서울특별시 중구 을지로43길 9-8, 1-12층 (을지로6가)",,,20150128,,1,,,,,2021-11-01 00:02:00.0,일반호텔,,,
262,태양장여관,서울특별시 양천구 신월동 121-19,"서울특별시 양천구 곰달래로 33, 2층 (신월동)",37.5300981824301,126.836378269034,19840211,,1,,,,,2021-12-04 00:07:00.0,여관업,,,
263,그린장모텔,서울특별시 동대문구 청량리동 41-5,서울특별시 동대문구 제기로38길 38 (청량리동),37.5846304232674,127.04944016658,19990809,,1,,,,,2021-11-01 00:02:00.0,여관업,,,
264,수정,서울특별시 강북구 미아동 214-31 수정여관,"서울특별시 강북구 도봉로53길 24, 수정여관 (미아동)",37.6267479045157,127.024435585859,19711113,,1,,,,,2021-10-30 22:03:00.0,여관업,,,
265,리치 다이아몬드,서울특별시 강북구 수유동 274-1,서울특별시 강북구 삼양로 500-18 (수유동),37.6475770283098,127.015584277466,19831201,,1,,,,,2021-12-04 00:03:00.0,관광호텔,,,
266,모우,서울특별시 동대문구 이문동 324-21,서울특별시 동대문구 이문로 81 (이문동),37.5944200831317,127.058649827537,2001-06-13,,1,,,,,2022-12-01 22:05:00.0,여관업,,,
267,나이스모텔,서울특별시 금천구 시흥동 863-50,서울특별시 금천구 독산로 161 (시흥동),,,19840516,,3,20221014,,,,2021-10-30 22:06:00.0,여관업,,,
268,하루모텔,서울특별시 중랑구 망우동 465-5,서울특별시 중랑구 용마산로 513 (망우동),37.5968256143569,127.099982618395,19830715,,3,20220419,,,,2021-12-03 22:00:00.0,여관업,,,
269,로비장,서울특별시 성북구 종암동 3-442번지 ,,,,19730320,,3,20021124,,,,2018-08-31 23:59:59.0,여관업,11.0,,
270,헤나모텔,서울특별시 광진구 중곡동 117-6,서울특별시 광진구 용마산로 19 (중곡동),37.5554274200214,127.088033788766,19830603,,1,,,,,2021-12-03 22:03:00.0,여관업,,,
271,신신,서울특별시 중구 북창동 93-43번지 ,,37.5623367979766,126.978691229493,19720720,,3,19950620,,,,2018-08-31 23:59:59.0,여관업,0.0,0.0,0.0
272,테마,서울특별시 서대문구 창천동 112-15,서울특별시 서대문구 신촌로9길 4 (창천동),37.5571199234764,126.932134308947,19691031,,1,,,,,2021-12-04 23:09:00.0,여인숙업,,,
273,문광여관,서울특별시 은평구 응암동 산 354-5번지 ,,,,19721218,,3,19970613,,,,2018-08-31 23:59:59.0,여관업,4.0,6.0,0.0
274,호텔야자 고대점,서울특별시 동대문구 제기동 1142-4,서울특별시 동대문구 회기로 32 (제기동),37.5910589640902,127.040041461562,19820911,,3,20220406,,,,2021-12-04 00:08:00.0,여관업,,,
275,미시간호텔,서울특별시 중랑구 상봉동 89-4,서울특별시 중랑구 봉우재로33길 89 (상봉동),37.5959640708005,127.089922831364,1988-04-08,,1,,,,,2022-12-02 00:08:00.0,여관업,,,
276,쉘부르,서울특별시 관악구 신림동 1422-49,서울특별시 관악구 신림로64길 36 (신림동),37.484975473683,126.931684488268,20010817,,1,,,,,2021-12-06 23:04:00.0,여관업,,,
277,태림장,서울특별시 관악구 신림동 1432-46,서울특별시 관악구 신림동3길 27 (신림동),37.4861291363237,126.928061169311,19990903,,3,20220712,,,,2021-12-06 23:04:00.0,여관업,,,
278,백련장,서울특별시 서대문구 북가좌동 343-11,서울특별시 서대문구 증가로 261 (북가좌동),37.5838488662043,126.911009135076,19820521,,1,,,,,2021-12-03 22:02:00.0,여관업,,,
279,폭스모텔,서울특별시 구로구 오류동 59-56,서울특별시 구로구 경인로 226-34 (오류동),37.4963382250426,126.846030505999,19870629,,1,,,,,2021-12-06 23:04:00.0,여관업,,,
280,진,서울특별시 종로구 창신동 393-14번지 ,,37.5711139439487,127.015502224211,19671221,,3,19980323,,,,2018-08-31 23:59:59.0,여인숙업,5.0,0.0,1.0
281,신세계,서울특별시 중구 회현동1가 46-2 신세계여관,"서울특별시 중구 퇴계로12길 39-22, 신세계여관 (회현동1가)",37.5576773522066,126.982328811561,20030226,,1,,,,,2021-11-01 22:09:00.0,여관업,,,
282,동우장,서울특별시 성북구 길음동 20-10번지 ,,,,19710227,,3,20021026,,,,2018-08-31 23:59:59.0,여관업,,10.0,
283,미진,서울특별시 성북구 길음동 547-48번지 ,,,,19671228,,3,20080618,,,,2018-08-31 23:59:59.0,여관업,9.0,,
284,대도,서울특별시 종로구 창신동 377-1번지 ,,37.5719853227166,127.013049169564,19791029,,3,20040210,,,,2018-08-31 23:59:59.0,여인숙업,8.0,,2.0
285,필운,서울특별시 종로구 필운동 108-1번지 ,,37.5772191268165,126.969119698514,19870305,,3,20011231,,,,2018-08-31 23:59:59.0,여관업,21.0,0.0,21.0
286,동일,서울특별시 종로구 효제동 50-1번지 ,,37.5746578498326,127.001017689798,19861017,,3,19980319,,,,2018-08-31 23:59:59.0,여관업,11.0,1.0,1.0
287,호텔 레몬트리,서울특별시 구로구 오류동 47-29,서울특별시 구로구 경인로20나길 44 (오류동),37.494348297762,126.841626355002,19851231,,1,,,,,2021-12-06 23:04:00.0,여관업,,,
288,쥬얼리,서울특별시 구로구 구로동 705-12,서울특별시 구로구 구로동로25길 30 (구로동),37.4907104965797,126.88218190265,19821022,,1,,,,,2021-12-06 23:04:00.0,여관업,,,
289,시티모텔,서울특별시 동작구 대방동 43-2,서울특별시 동작구 등용로14길 44 (대방동),37.5120127246753,126.933968494806,19811202,,1,,,,,2021-12-03 23:03:00.0,여관업,,,
290,목화장,서울특별시 구로구 구로동 705-13,서울특별시 구로구 구로동로25길 10-11 (구로동),37.4908404729425,126.883140580847,19820513,,1,,,,,2021-12-06 23:04:00.0,여인숙업,,,
291,대원,서울특별시 구로구 구로동 705-18,서울특별시 구로구 구로동로29길 24 (구로동),37.4909871037187,126.882723215157,19750818,,1,,,,,2021-12-06 23:04:00.0,여인숙업,,,
292,아이리스,서울특별시 금천구 시흥동 985-16,서울특별시 금천구 시흥대로 135 (시흥동),,,19801220,,3,20220420,,,,2021-12-03 22:02:00.0,여관업,,,
293,호텔럭스,서울특별시 노원구 상계동 703,서울특별시 노원구 노해로75길 14-3 (상계동),37.6545195185682,127.057549777883,1996-09-24,,1,,,,,2022-12-01 23:05:00.0,일반호텔,,,
294,대지,서울특별시 종로구 내수동 187-0번지 ,,,,19860718,,3,20011231,,,,2018-08-31 23:59:59.0,여관업,10.0,0.0,1.0
295,우림장,서울특별시 구로구 구로동 706-17,서울특별시 구로구 구로동로21길 26-15 (구로동),37.4900370239754,126.882755682968,19741120,,1,,,,,2021-12-06 23:04:00.0,여인숙업,,,
296,동일장,서울특별시 구로구 구로동 781-8,서울특별시 구로구 도림로12길 25 (구로동),37.4866054756714,126.889516601549,19740225,,1,,,,,2021-12-06 23:04:00.0,여인숙업,,,
297,연빈모텔,서울특별시 구로구 구로동 808-24,서울특별시 구로구 구로동로7길 22 (구로동),37.4858206710049,126.885049641735,19731217,,1,,,,,2021-12-06 23:04:00.0,여인숙업,,,
298,호수모텔,서울특별시 금천구 독산동 960-6,서울특별시 금천구 독산로 356-1 (독산동),37.4785821257536,126.903997826002,19831020,,1,,,,,2021-10-31 23:09:00.0,여관업,,,
299,타오호텔,서울특별시 은평구 갈현동 395-17,서울특별시 은평구 통일로 863-24 (갈현동),37.6204978862695,126.919515455863,2017-06-08,,1,,,,,2022-12-02 00:03:00.0,관광호텔,,,
300,시마호텔,서울특별시 종로구 원남동 103-1번지 ,,37.5761070850997,126.997886130158,19851223,,3,20100503,,,,2018-08-31 23:59:59.0,일반호텔,13.0,30.0,
301,우리장여관,서울특별시 강북구 미아동 202-9,서울특별시 강북구 솔매로45길 102-2 (미아동),37.6305618830387,127.023933046536,19700623,,1,,,,,2021-12-02 21:01:00.0,여관업,,,
302,디케이하우스,"서울특별시 서대문구 대현동 90-37 4,5,6,7,8층","서울특별시 서대문구 이화여대1안길 15, 4,5,6,7,8층 (대현동)",,,2020-03-09,,1,,,,,2022-12-02 00:09:00.0,휴양콘도미니엄업,,,
303,대교장,서울특별시 구로구 구로동 722-26,서울특별시 구로구 구로동로17길 8-3 (구로동),37.4885929613416,126.883923376767,19700417,,1,,,,,2021-12-06 23:04:00.0,여인숙업,,,
304,유진장,"서울특별시 서대문구 홍은동 48-173 1,2층","서울특별시 서대문구 통일로42길 6, 1,2층 (홍은동)",,,1982-09-02,,1,,,,,2022-12-01 23:00:00.0,여관업,,,
305,산호,서울특별시 구로구 구로동 728-12,서울특별시 구로구 구로동로25길 5-8 (구로동),37.4901896471577,126.883476748365,19690826,,1,,,,,2021-12-06 23:04:00.0,여인숙업,,,
306,바론드 호텔,서울특별시 서대문구 창천동 29-11,서울특별시 서대문구 연세로2나길 8 (창천동),37.5565182980388,126.938321563742,1999-10-08,,1,,,,,2022-12-04 23:01:00.0,일반호텔,,,
307,충남,서울특별시 구로구 구로동 730-29,서울특별시 구로구 구로동로26길 55-8 (구로동),37.4902818895007,126.887546284145,19681228,,1,,,,,2021-12-06 23:04:00.0,여인숙업,,,
308,보경,서울특별시 동대문구 전농동 680-15,서울특별시 동대문구 답십리로15길 5 (전농동),37.5771587300046,127.046159491475,19790307,,1,,,,,2021-11-01 00:02:00.0,여인숙업,,,
309,구인장여관,서울특별시 성북구 동소문동3가 7,서울특별시 성북구 동소문로 34-8 (동소문동3가),,,19660523,,3,20220518,,,,2021-12-04 23:09:00.0,여관업,,,
310,신촌 에버에이트 레지던스호텔,서울특별시 서대문구 대현동 104-5,서울특별시 서대문구 신촌역로 7 (대현동),37.5573527481625,126.942500021232,2015-01-05,,1,,,,,2022-12-02 00:09:00.0,휴양콘도미니엄업,,,
311,상하,서울특별시 구로구 구로동 801-34,서울특별시 구로구 도림로 8-1 (구로동),37.4853564411487,126.886884986037,19680729,,1,,,,,2021-12-06 23:04:00.0,여인숙업,,,
312,렉시,서울특별시 서대문구 창천동 29-55,서울특별시 서대문구 연세로2가길 14 (창천동),37.5566081552351,126.93768804866,1996-10-04,,1,,,,,2022-12-02 00:09:00.0,관광호텔,,,
313,M모텔,서울특별시 강동구 천호동 556-3,서울특별시 강동구 진황도로23길 12 (천호동),37.5395080447576,127.129829472774,20010523,,1,,,,,2021-12-07 22:04:00.0,여관업,,,
314,킴스테이9,서울특별시 강서구 화곡동 799-9,서울특별시 강서구 곰달래로 247 (화곡동),37.5321837988702,126.860515572123,19830416,,1,,,,,2021-12-03 21:00:00.0,여관업,,,
315,준희빈,서울특별시 마포구 합정동 380-36,서울특별시 마포구 양화로 16 (합정동),37.5482386280513,126.911124477069,1982-12-11,,1,,,,,2022-12-02 00:09:00.0,여관업,,,
316,신흥모텔,서울특별시 중랑구 상봉동 111-28,서울특별시 중랑구 면목로91길 25 (상봉동),,,19810805,,3,20220428,,,,2021-12-03 21:00:00.0,여관업,,,
317,제이모텔,서울특별시 서대문구 북가좌동 309-12,서울특별시 서대문구 응암로1길 3 (북가좌동),37.5809594773728,126.911497008143,19811014,,1,,,,,2021-12-05 00:03:00.0,여관업,,,
318,칼리스타,"서울특별시 중구 을지로2가 199-40 명동아르누보센텀 405호, 408~414호","서울특별시 중구 명동7길 21, 명동아르누보센텀 405호, 408~414호 (을지로2가)",37.5647312946952,126.983858910559,20180607,,1,,,,,2021-11-01 00:03:00.0,일반호텔,,,
319,(주)호텔롯데 L7 홍대,서울특별시 마포구 동교동 160-5,서울특별시 마포구 양화로 141 (동교동),37.5557534793508,126.921669461673,2018-01-02,,1,,,,,2022-12-01 22:05:00.0,관광호텔,,,
320,헤르츠,서울특별시 종로구 낙원동 108-1,서울특별시 종로구 돈화문로11길 44 (낙원동),37.5727431718982,126.988932821906,20151223,,1,,,,,2021-11-01 00:03:00.0,일반호텔,,,
321,Tmark 호텔 명동,서울특별시 중구 충무로3가 43,서울특별시 중구 충무로 15 (충무로3가),,,20130925,,3,20220429,,,,2021-12-05 00:03:00.0,관광호텔,,,
322,호텔엠,서울특별시 마포구 노고산동 106-62,서울특별시 마포구 백범로4길 14 (노고산동),37.5528313230409,126.936280536899,19900125,,3,20221101,,,,2021-11-01 00:03:00.0,여관업,,,
323,삼일,서울특별시 종로구 숭인동 1143번지 ,,,,19711223,,3,20091125,,,,2018-08-31 23:59:59.0,여관업,10.0,,10.0
324,스타호스텔 동대문 스위트,서울특별시 종로구 효제동 245-2,서울특별시 종로구 대학로2길 15 (효제동),37.5716752542915,127.00293148628,19880106,,1,,,,,2021-11-01 00:03:00.0,여관업,,,
325,성도모텔,서울특별시 종로구 관수동 39-1번지 ,,37.5698904061398,126.990612155358,19780401,,3,20091210,,,,2018-08-31 23:59:59.0,여인숙업,13.0,,1.0
326,호텔데미안,서울특별시 강남구 도곡동 542-2,서울특별시 강남구 도곡로 220 (도곡동),37.4927064880177,127.043068706674,19840801,,1,,,,,2021-12-05 00:03:00.0,여관업,,,
327,베니키아호텔플라워,서울특별시 동대문구 청량리동 30-6,서울특별시 동대문구 왕산로 269 (청량리동),37.5848750334646,127.050526314294,19871209,,1,,,,,2021-11-01 00:03:00.0,관광호텔,,,
328,아쿠아모텔,서울특별시 종로구 낙원동 152-1번지 ,,37.571780021893,126.990102074078,20021203,,3,20080715,,,,2018-08-31 23:59:59.0,여관업,,35.0,
329,모나코,서울특별시 관악구 신림동 1432-49,서울특별시 관악구 신림동1길 26 (신림동),37.4862524751289,126.928491278102,19860723,,1,,,,,2022-11-30 23:01:00.0,여관업,,,
330,유니언호텔,서울특별시 영등포구 양평동5가 62 파크호텔,"서울특별시 영등포구 양평로 136, 파크호텔 (양평동5가)",37.5386759385728,126.893055462568,20180109,,1,,,,,2021-11-01 00:04:00.0,관광호텔,,,
331,오슬로호텔,서울특별시 강서구 화곡동 938-16 .17,"서울특별시 강서구 월정로 118 (화곡동,.17)",37.529759803473,126.838697471818,20001005,,1,,,,,2021-11-01 00:06:00.0,여관업,,,
332,게릴라하우스01,서울특별시 용산구 남영동 88-1,서울특별시 용산구 한강대로 262-5 (남영동),37.541878561897,126.973400142401,19731002,,1,,,,,2021-11-01 00:06:00.0,여관업,,,
333,도고장,서울특별시 강서구 화곡동 921-15,서울특별시 강서구 곰달래로 68 (화곡동),37.5300375876502,126.840292753686,19970926,,3,20221107,,,,2021-11-01 00:09:00.0,여관업,,,
334,위시앤스테이(WISH&STAY),서울특별시 광진구 구의동 201-3,서울특별시 광진구 광나루로 594 (구의동),37.5421881211795,127.094257604462,19830524,,1,,,,,2021-10-31 23:02:00.0,여관업,,,
335,삼일정여관,서울특별시 성북구 길음동 544-2번지 ,,,,20021012,,3,20071001,,,,2018-08-31 23:59:59.0,여관업,3.0,8.0,0.0
336,은진모텔,서울특별시 종로구 숭인동 1086 ,서울특별시 종로구 숭인동길 46 (숭인동),37.5770418729569,127.022187363612,19860318,,1,,,,,2021-07-04 02:40:00.0,여관업,23.0,13.0,13.0
337,게스트하우스코리아,서울특별시 종로구 와룡동 19-2번지 ,,37.5769658323532,126.99065541746,20011126,,3,20040908,,,,2018-08-31 23:59:59.0,여관업,,14.0,
338,온천,서울특별시 성북구 하월곡동 33-14번지 ,,,,19681115,,3,20050429,,,,2018-08-31 23:59:59.0,여관업,3.0,9.0,
339,더포스트 호텔,서울특별시 종로구 관수동 24 ,서울특별시 종로구 수표로18길 15-1 (관수동),37.5694944159236,126.990578133482,20190220,,1,,,,,2021-07-30 02:40:00.0,일반호텔,0.0,52.0,0.0
340,은성,서울특별시 종로구 원남동 189-6 ,서울특별시 종로구 창경궁로 145-3 (원남동),37.5752585953358,126.996846381519,20190212,,1,,,,,2020-07-01 02:40:00.0,숙박업(생활),2.0,14.0,0.0
341,호텔파이종로,서울특별시 종로구 연지동 119 케니스토리 인 종로5가,"서울특별시 종로구 창경궁로16가길 9, 케니스토리 인 종로5가 (연지동)",37.574210239078,126.999525345074,2019-02-07,,1,,,,,2022-12-03 00:09:00.0,일반호텔,,,
342,장춘여관,서울특별시 중구 회현동1가 29-2번지 ,,,,20000811,,3,20070801,,,,2018-08-31 23:59:59.0,여관업,0.0,20.0,0.0
343,귀빈장,서울특별시 강서구 화곡동 902-10,서울특별시 강서구 강서로7길 19 (화곡동),37.5294979892473,126.846691973039,1999-12-30,,3,2023-02-27,,,,2022-12-03 00:01:00.0,여관업,,,
344,나인트리 프리미어 호텔 인사동,서울특별시 종로구 관훈동 155-2 ,서울특별시 종로구 인사동길 49 (관훈동),37.5744668688197,126.983552182559,20190905,,1,,,,,2022-01-27 02:40:00.0,관광호텔,0.0,299.0,0.0
345,오라카이 대학로 호텔,서울특별시 종로구 원남동 49-17 ,서울특별시 종로구 율곡로 180 (원남동),37.5755697439268,126.998717740499,20190814,,1,,,,,2020-07-03 02:40:00.0,일반호텔,3.0,251.0,0.0
346,스타모텔,서울특별시 강서구 화곡동 1105-12,서울특별시 강서구 우장산로 128 (화곡동),37.5529925635603,126.850087268869,1989-08-05,,1,,,,,2022-12-01 23:08:00.0,일반호텔,,,
347,청원 NEST,서울특별시 종로구 효제동 197-6번지 ,서울특별시 종로구 종로35가길 7-3 (효제동),37.5721158922262,127.004213137841,20070621,,1,,,,,2019-07-28 02:21:48.0,숙박업(생활),0.0,33.0,0.0
348,(주)호텔롯데 롯데시티호텔 김포공항,서울특별시 강서구 방화동 886 Sky   Park,"서울특별시 강서구 하늘길 38, Sky  Park동 (방화동)",37.5713698504776,126.80296035927,2011-11-29,,1,,,,,2022-12-01 22:06:00.0,관광호텔,,,
349,유성장여관,서울특별시 중구 신당동 294-36번지 ,,,,19681108,,3,20090609,,,,2018-08-31 23:59:59.0,여관업,0.0,14.0,0.0
350,우정,서울특별시 은평구 응암동 산 601-56번지 57 ,,,,19720801,,3,19990520,,,,2018-08-31 23:59:59.0,여관업,7.0,0.0,0.0
351,인터시티 서울호텔,서울특별시 강서구 마곡동 797-11,서울특별시 강서구 마곡중앙6로 76-3 (마곡동),37.5597174210035,126.835794591825,2017-08-09,,1,,,,,2022-12-03 23:06:00.0,숙박업(생활),,,
352,핑크빌,서울특별시 종로구 관철동 175번지 대한방직협회신관 5층 ,"서울특별시 종로구 삼일대로17길 47-1, 대한방직협회신관 5층 (관철동)",37.5690822569906,126.98494327562,20190828,,1,,,,,2019-08-30 02:22:32.0,숙박업 기타,0.0,9.0,0.0
353,성지여관,서울특별시 중구 회현동1가 86-1번지 ,,37.5580365924269,126.980140557323,19680515,,3,20000531,,,,2018-08-31 23:59:59.0,여관업,0.0,0.0,0.0
354,글루호텔,서울특별시 종로구 이화동 105-2번지 glue hotel ,"서울특별시 종로구 율곡로 228, glue hotel (이화동)",37.5757964651678,127.00394901351,20191018,,1,,,,,2019-12-07 00:23:27.0,관광호텔,0.0,54.0,0.0
355,나무와 숲,서울특별시 종로구 명륜2가 167-1 ,서울특별시 종로구 창경궁로33길 5 (명륜2가),37.5839601633572,126.999109665372,19790904,,1,,,,,2021-10-23 02:40:00.0,여관업,10.0,0.0,10.0
356,동아,서울특별시 동대문구 청량리동 300-0,서울특별시 동대문구 홍릉로 16 (청량리동),37.5817583016699,127.044998386551,19790223,,1,,,,,2021-10-31 23:02:00.0,여관업,,,
357,롯데시티호텔 구로,,"서울특별시 구로구 디지털로 300 (구로동, (주)호텔롯데 롯데시티호텔 구로)",37.4849270383011,126.896538036905,2014-07-10,,1,,,,,2022-12-04 00:02:00.0,관광호텔,,,
358,유에이치 스위트 종각 5F,서울특별시 종로구 관철동 12-15번지 평구빌딩 5층 ,"서울특별시 종로구 종로12길 21, 평구빌딩 5층 (관철동)",37.569083558387,126.986000507196,20191113,,1,,,,,2019-11-15 00:23:15.0,숙박업(생활),0.0,5.0,0.0
359,성호장,서울특별시 구로구 가리봉동 134-130,서울특별시 구로구 디지털로 234 (가리봉동),37.4806526146082,126.891766337114,1983-07-13,,1,,,,,2022-12-02 00:04:00.0,여관업,,,
360,유에이치스위트 광화문,서울특별시 종로구 관철동 12-15 평구빌딩 3층 ,"서울특별시 종로구 종로12길 21, 평구빌딩 3층 (관철동)",37.569083558387,126.986000507196,20191113,,1,,,,,2020-08-22 02:40:00.0,숙박업(생활),0.0,5.0,0.0
361,010 모텔,서울특별시 강서구 화곡동 24-82,서울특별시 강서구 화곡로42나길 6 (화곡동),37.5467713047761,126.846264391927,19800930,,3,20220504,,,,2021-12-05 00:07:00.0,여관업,,,
362,유에이치 스위트 종각 4F,서울특별시 종로구 관철동 12-15번지 평구빌딩 4층 ,"서울특별시 종로구 종로12길 21, 평구빌딩 4층 (관철동)",37.569083558387,126.986000507196,20191113,,1,,,,,2019-11-15 00:23:15.0,숙박업(생활),0.0,5.0,0.0
363,홍일,서울특별시 종로구 홍파동 185번지 ,서울특별시 종로구 통일로 184-26 (홍파동),,,19780801,,3,20170403,,,,2018-08-31 23:59:59.0,여인숙업,10.0,,1.0
364,그리드인,서울특별시 종로구 관수동 54-2번지 ,서울특별시 종로구 종로18길 9-6 (관수동),37.5696548527265,126.99135723344,20161109,,1,,,,,2018-08-31 23:59:59.0,숙박업(생활),0.0,41.0,0.0
365,헤리티지31호텔 (HOTEL HERITAGE31),서울특별시 종로구 관철동 13-11 헤리티지호텔 ,"서울특별시 종로구 삼일대로17길 20-3, 헤리티지호텔 (관철동)",37.5693856989593,126.986314112452,20220216,,1,,,,,2022-02-18 00:22:37.0,숙박업 기타,0.0,27.0,0.0
366,종로 스테이,서울특별시 종로구 원남동 226-1번지 ,서울특별시 종로구 동순라길 98 (원남동),37.5750899995134,126.996178603667,20200121,,1,,,,,2020-01-23 00:23:24.0,숙박업(생활),0.0,20.0,0.0
367,동문,서울특별시 종로구 창신동 436-27번지 ,,37.5704282624989,127.011816306419,20000427,,3,20060421,,,,2018-08-31 23:59:59.0,여인숙업,20.0,,
368,UH SUITE,서울특별시 종로구 관철동 18-10번지 ,"서울특별시 종로구 우정국로2길 29, 4~5층 (관철동)",,,20200323,,1,,,,,2020-03-25 00:23:22.0,숙박업(생활),0.0,5.0,0.0
369,삼오여관,서울특별시 종로구 숭인동 227-5 ,서울특별시 종로구 종로60길 9 (숭인동),37.5732412803792,127.018638765698,19671023,,1,,,,,2022-03-10 02:40:00.0,여관업,11.0,0.0,11.0
370,청수,서울특별시 종로구 종로6가 244-15번지 ,,37.5717291820906,127.006303882963,19850725,,3,20050525,,,,2018-08-31 23:59:59.0,여관업,11.0,10.0,14.0
371,신성,서울특별시 종로구 창신동 541-2번지 ,,37.5721322405746,127.011656173211,19930927,,3,20050222,,,,2018-08-31 23:59:59.0,여관업,10.0,,10.0
372,엠제이 스테이,서울특별시 종로구 관철동 19-23번지 4~6층 ,"서울특별시 종로구 우정국로2길 34, 4~6층 (관철동)",,,20181114,,1,,,,,2018-11-16 02:36:16.0,여관업,0.0,23.0,0.0
373,현저여인숙,서울특별시 종로구 무악동 46-53번지 ,,,,19630627,,3,20100623,,,,2018-08-31 23:59:59.0,여인숙업,6.0,,
374,어 베터 플레이스 (A BETTER PLACE),서울특별시 종로구 관철동 14-6 ,"서울특별시 종로구 삼일대로19길 22, 4층 (관철동)",37.5696598758376,126.986348247132,20200507,,1,,,,,2020-07-01 02:40:00.0,숙박업(생활),0.0,1.0,0.0
375,화성,서울특별시 종로구 청진동 3-1번지 ,,37.5720993362565,126.980657763505,19721107,,3,19980824,,,,2018-08-31 23:59:59.0,여인숙업,9.0,0.0,1.0
376,호텔케이월드(청계),서울특별시 종로구 관수동 104-2 ,서울특별시 종로구 수표로18길 28 (관수동),37.5692293887912,126.991169946187,20200623,,1,,,,,2021-02-17 02:40:00.0,일반호텔,0.0,60.0,0.0
377,상춘,서울특별시 중구 다동 32-1번지 ,,,,19730122,,3,19950501,,,,2018-08-31 23:59:59.0,여인숙업,0.0,0.0,0.0
378,영미여관,서울특별시 종로구 창신동 412-2번지 ,,37.5705784063287,127.013945325198,19880105,,3,20110302,,,,2018-08-31 23:59:59.0,여관업,11.0,,23.0
379,더 가든 호텔(The garden hotel),서울특별시 종로구 익선동 30-1,서울특별시 종로구 돈화문로11나길 63 (익선동),37.5751888752693,126.989402140163,20220107,,1,,,,,2021-12-08 22:04:00.0,숙박업 기타,,,
380,서울 게스트하우스,서울특별시 종로구 숭인동 70-25 영진모텔,"서울특별시 종로구 지봉로12가길 63, 영진여관 (숭인동)",37.5746303164208,127.016396346305,20191203,,1,,,,,2022-11-30 23:04:00.0,숙박업 기타,,,
381,백금,서울특별시 종로구 창신동 425-42번지 ,,37.5703504680214,127.013038696701,19671013,,3,20000510,,,,2018-08-31 23:59:59.0,여인숙업,14.0,0.0,1.0
382,원갑,서울특별시 종로구 인사동 117번지 ,,37.5708043255378,126.986394788436,19770826,,3,20050718,,,,2018-08-31 23:59:59.0,여관업,23.0,,23.0
383,노벨장,서울특별시 종로구 숭인동 1421번지 ,,37.5737460908599,127.022367733858,19840323,,3,20110329,,,,2018-08-31 23:59:59.0,여관업,16.0,8.0,8.0
384,동대문 서울 달빛,서울특별시 종로구 창신동 329-18 ,"서울특별시 종로구 종로54길 9-10, 2,3층 (창신동)",37.5719984472991,127.01409342708,20160127,,1,,,,,2020-10-14 02:40:00.0,관광호텔,0.0,19.0,0.0
385,삼성여인숙,서울특별시 종로구 효제동 246번지 ,,,,19810403,,3,20040419,,,,2018-08-31 23:59:59.0,여인숙업,7.0,,1.0
386,호스텔 하루,서울특별시 종로구 관철동 43-8 관철동 빌딩 ,"서울특별시 종로구 청계천로 61, 관철동 빌딩 (관철동)",37.5689809031787,126.984314164707,20160315,,1,,,,,2020-08-08 02:40:00.0,관광호텔,0.0,14.0,0.0
387,동산,서울특별시 종로구 인사동 153-5번지 ,,37.5719036658825,126.985933984758,20031217,,3,20080129,,,,2018-08-31 23:59:59.0,여관업,11.0,,
388,광평,서울특별시 중구 다동 123-1번지 ,,37.5673718468086,126.982010378059,19820107,,3,19980728,,,,2018-08-31 23:59:59.0,여관업,0.0,0.0,10.0
389,유하,서울특별시 종로구 창신동 401-37번지 ,,37.5708863957828,127.016512344534,19710723,,3,20050511,,,,2018-08-31 23:59:59.0,여인숙업,,,1.0
390,호스텔 데이,서울특별시 종로구 명륜4가 188-12 서울씨티빌딩 ,"서울특별시 종로구 창경궁로 224, 2,3층 (명륜4가, 서울씨티빌딩)",37.5819831891713,126.997952873215,20160614,,1,,,,,2020-08-08 02:40:00.0,관광호텔,0.0,13.0,0.0
391,광일,서울특별시 강북구 미아동 842-0번지 ,,,,19691110,,3,200009  ,,,,2018-08-31 23:59:59.0,여인숙업,9.0,0.0,0.0
392,장안,서울특별시 종로구 창신동 449-4번지 ,,37.5709309915624,127.012076398853,19671026,,3,20060628,,,,2018-08-31 23:59:59.0,여인숙업,17.0,,1.0
393,황해,서울특별시 종로구 숭인동 202-0번지 ,,,,19700826,,3,19960104,,,,2018-08-31 23:59:59.0,여인숙업,16.0,0.0,2.0
394,서울앤호텔 동대문,서울특별시 종로구 숭인동 202-13 ,서울특별시 종로구 종로66가길 21 (숭인동),37.5733147065018,127.020824683527,20170608,,1,,,,,2020-08-08 02:40:00.0,관광호텔,0.0,101.0,0.0
395,(주) 동승 JW메리어트 동대문 스퀘어 서울,서울특별시 종로구 종로6가 289-3 ,서울특별시 종로구 청계천로 279 (종로6가),37.5704485321397,127.008743829151,20131230,,1,,,,,2021-05-08 02:40:00.0,관광호텔,0.0,170.0,0.0
396,유성,서울특별시 중구 태평로2가 312-0번지 ,,,,19671102,,3,19950501,,,,2018-08-31 23:59:59.0,여인숙업,0.0,0.0,9.0
397,복현,서울특별시 서대문구 충정로3가 317-0번지 ,,,,19630627,,3,19931213,,,,2018-08-31 23:59:59.0,여인숙업,11.0,0.0,0.0
398,호텔 이비스앰배서더 인사동,서울특별시 종로구 익선동 34-3 ,서울특별시 종로구 삼일대로30길 31 (익선동),37.5743758276449,126.989513872553,20130925,,1,,,,,2022-03-26 02:40:00.0,관광호텔,0.0,363.0,0.0
399,프린스 모텔,서울특별시 영등포구 영등포동5가 41-14,서울특별시 영등포구 영중로16길 11 (영등포동5가),37.5208463984422,126.906671954863,2003-02-26,,3,2023-02-20,,,,2022-12-01 22:02:00.0,여관업,,,
400,플로렌스,서울특별시 영등포구 영등포동3가 13-2,서울특별시 영등포구 영중로10길 40 (영등포동3가),37.5183556846838,126.909709427985,2003-02-26,,1,,,,,2022-12-01 22:05:00.0,여관업,,,
401,중림여관,서울특별시 중구 수하동 27-1번지 ,,,,19740509,,3,20040501,,,,2018-08-31 23:59:59.0,여관업,0.0,13.0,0.0
402,루미아호텔,서울특별시 종로구 숭인동 1405,서울특별시 종로구 난계로29길 19-11 (숭인동),37.5738925237115,127.022255595202,2018-02-14,,1,,,,,2022-12-04 00:09:00.0,관광호텔,,,
403,셀립 순라,서울특별시 종로구 권농동 127-1 셀립 순라,"서울특별시 종로구 율곡로10길 11, 셀립 순라 (권농동)",37.5770338920437,126.991103478387,20150126,,1,,,,,2021-12-06 00:04:00.0,관광호텔,,,
404,삼화,서울특별시 종로구 화동 35번지 ,,37.5821250971039,126.982030037526,19760209,,3,20040128,,,,2018-08-31 23:59:59.0,여관업,8.0,7.0,7.0
405,호스텔 클로이,서울특별시 종로구 관철동 35-1 동산빌딩,"서울특별시 종로구 종로16길 32-4, 동산빌딩 (관철동)",37.5687293854131,126.98859021326,20140602,,1,,,,,2021-12-08 23:08:00.0,관광호텔,,,
406,고궁호텔,서울특별시 종로구 원남동 177-9 호텔고궁,"서울특별시 종로구 율곡로 164, 호텔고궁 (원남동)",37.5757216154942,126.996810815926,20141105,,3,20211229,,,,2021-10-30 22:03:00.0,관광호텔,,,
407,24 guesthouse 동대문마켓점,서울특별시 종로구 창신동 444-9 임진빌딩,"서울특별시 종로구 종로46길 22, 임진빌딩 (창신동)",37.5706477164128,127.010189143493,20140508,,1,,,,,2022-12-01 00:08:00.0,관광호텔,,,
408,북악스카이여관,서울특별시 종로구 평창동 66-3번지 ,,37.6110098061304,126.97644153377,19830425,,3,19951024,,,,2018-08-31 23:59:59.0,여관업,23.0,0.0,14.0
409,아이비씨호텔,서울특별시 종로구 숭인동 1396,서울특별시 종로구 난계로 241 (숭인동),37.5732544172469,127.022842009254,20160309,,1,,,,,2021-12-06 23:06:00.0,관광호텔,,,
410,호텔쿠레타케소,서울특별시 종로구 인사동 34-2 ,서울특별시 종로구 인사동길 20-9 (인사동),37.5723948493737,126.987173421413,20180611,,1,,,,,2021-05-08 02:40:00.0,관광호텔,0.0,127.0,0.0
411,화성,서울특별시 종로구 익선동 128-1번지 ,,37.5740577855507,126.98961636452,19870901,,3,20031231,,,,2018-08-31 23:59:59.0,여인숙업,10.0,,1.0
412,메이커스호텔,서울특별시 종로구 낙원동 132-2 ,서울특별시 종로구 돈화문로11길 33 (낙원동),37.5723608448459,126.989538606049,20160202,,1,,,,,2022-03-25 02:40:00.0,관광호텔,0.0,42.0,0.0
413,호텔 아트리움,서울특별시 종로구 인의동 48-26 호텔아트리움 ,"서울특별시 종로구 창경궁로 106, 호텔아트리움 (인의동)",37.5718859290824,126.998164377518,20160601,,1,,,,,2021-05-08 02:40:00.0,관광호텔,0.0,139.0,0.0
414,Hostel Tommy 호스텔 토미,서울특별시 종로구 와룡동 68 원광빌딩 ,"서울특별시 종로구 돈화문로 66, 원광빌딩 (와룡동)",37.5744231771637,126.99119548265,20130408,,1,,,,,2020-08-23 02:40:00.0,관광호텔,0.0,21.0,0.0
415,더 엠 호텔,서울특별시 관악구 남현동 1060-8,서울특별시 관악구 남부순환로 2082-27 (남현동),37.4760662023601,126.98084070239,2001-12-14,,1,,,,,2022-12-03 00:01:00.0,여관업,,,
416,오라카이 인사동 스위츠,서울특별시 종로구 낙원동 272 로담코 인사빌딩 ,"서울특별시 종로구 인사동4길 18, 로담코 인사빌딩 (낙원동)",37.5729945693428,126.987337345223,20070904,,1,,,,,2020-08-23 02:40:00.0,숙박업(생활),,213.0,
417,쉐르빌,서울특별시 관악구 봉천동 1569-2,서울특별시 관악구 남부순환로220길 49 (봉천동),37.4790338483906,126.951749778968,1987-12-31,,1,,,,,2022-12-02 00:02:00.0,여관업,,,
418,영천,서울특별시 종로구 무악동 45-36번지 ,,,,19630627,,3,19960106,,,,2018-08-31 23:59:59.0,여인숙업,11.0,0.0,1.0
419,ICON,서울특별시 종로구 익선동 33-24 ,서울특별시 종로구 삼일대로32가길 20 (익선동),37.5748506859721,126.988901492477,20130125,,1,,,,,2021-12-12 02:40:00.0,관광호텔,0.0,28.0,0.0
420,신신여관,서울특별시 중구 황학동 671번지 ,,,,20030226,,3,20070302,,,,2018-08-31 23:59:59.0,여관업,0.0,10.0,0.0
421,한강,서울특별시 종로구 창신동 390-18번지 ,,37.5713142719726,127.013750876134,19761111,,3,20021231,,,,2018-08-31 23:59:59.0,여인숙업,7.0,0.0,1.0
422,아미드 호텔 서울,서울특별시 종로구 관훈동 198-42 관훈빌딩(아미드호텔서울),"서울특별시 종로구 인사동5길 38, 관훈빌딩(아미드호텔서울) (관훈동)",37.5725709989957,126.984238926656,2012-11-09,,1,,,,,2022-12-05 00:03:00.0,관광호텔,,,
423,호스텔코리아,서울특별시 종로구 와룡동 140 ,서울특별시 종로구 돈화문로 85 (와룡동),37.576078322139,126.990275160995,20130523,,1,,,,,2020-08-23 00:23:13.0,관광호텔,,30.0,
424,익선스테이,서울특별시 종로구 익선동 89 ,서울특별시 종로구 삼일대로32가길 38 (익선동),37.5745492870821,126.989717951905,20210429,,1,,,,,2021-05-01 00:23:12.0,숙박업(생활),,17.0,
425,청수장여관,서울특별시 종로구 구기동 63번지 ,,37.6064035838445,126.959760733069,19840410,,3,20060124,,,,2018-08-31 23:59:59.0,여인숙업,3.0,10.0,8.0
426,동원,서울특별시 종로구 청진동 83-0번지 ,,37.5709617749066,126.981437983842,19850906,,3,20000613,,,,2018-08-31 23:59:59.0,여관업,16.0,0.0,0.0
427,호텔 DM,서울특별시 종로구 숭인동 217-19 ,서울특별시 종로구 난계로29길 73 (숭인동),37.5733320692481,127.019393155899,20201023,,1,,,,,2020-11-17 00:23:09.0,관광호텔,,100.0,
428,호텔 프렌즈,서울특별시 종로구 관철동 37-1 ,서울특별시 종로구 청계천로 97-6 (관철동),37.5685442148057,126.988425771828,20150930,,1,,,,,2021-07-11 02:40:00.0,숙박업 기타,0.0,21.0,0.0
429,호텔썬비,서울특별시 종로구 관훈동 198-11번지 ,서울특별시 종로구 인사동7길 26 (관훈동),37.5730785091133,126.984770293857,20031113,,1,,,,,2019-12-11 02:40:00.0,관광호텔,0.0,42.0,0.0
430,탑호텔 앤 레지던스,서울특별시 종로구 낙원동 78번지 ,서울특별시 종로구 삼일대로28길 14 (낙원동),37.5734073707316,126.988777752089,20150630,,1,,,,,2019-06-06 02:40:00.0,숙박업(생활),0.0,36.0,0.0
431,동원장,서울특별시 종로구 청진동 83번지 ,,37.5709617749066,126.981437983842,20000613,,3,20080430,,,,2018-08-31 23:59:59.0,여관업,6.0,9.0,
432,서울여인숙,서울특별시 서초구 방배동 1775 (1층~2층),서울특별시 서초구 서초대로1길 19-7 (방배동),37.4879011618613,126.982776967451,1972-07-05,,1,,,,,2022-12-03 21:00:00.0,여인숙업,,,
433,호텔 다다-인사,서울특별시 종로구 익선동 46,서울특별시 종로구 삼일대로32가길 33 (익선동),37.5746471194329,126.989539531459,20130213,,1,,,,,2021-11-01 23:00:00.0,관광호텔,,,
434,오클라우드 호텔,"서울특별시 서초구 서초동 1303-14 , 15호 3층 ~ 14층","서울특별시 서초구 사평대로58길 12, 3층 ~ 14층 (서초동)",37.5030401070402,127.023704093161,2014-10-02,,1,,,,,2022-12-01 23:01:00.0,숙박업(생활),,,
435,은하여관,서울특별시 영등포구 신길동 3543,,37.502239383933,126.910607797273,20030226,,1,,,,,2021-12-06 22:07:00.0,여관업,,,
436,호텔누누,"서울특별시 종로구 낙원동 181,183번지 ",서울특별시 종로구 수표로22길 6 (낙원동),37.5709699888291,126.989654487765,20030826,,1,,,,,2019-06-06 02:40:00.0,여관업,0.0,48.0,0.0
437,호텔 케이월드(종로5가),서울특별시 종로구 효제동 192,서울특별시 종로구 종로35길 10 (효제동),37.5716448554899,127.004113383988,2003-12-09,,1,,,,,2022-12-02 23:07:00.0,여관업,,,
438,SAE WHA HOSTEL,서울특별시 종로구 익선동 79번지 ,서울특별시 종로구 삼일대로32가길 50 (익선동),37.5747330504836,126.990316088851,19681017,,1,,,,,2018-08-31 23:59:59.0,여관업,13.0,2.0,2.0
439,쿠즈호텔,서울특별시 종로구 운니동 25-1번지 ,서울특별시 종로구 돈화문로11가길 83 (운니동),37.5763592253448,126.989954301494,19891207,,1,,,,,2018-12-01 02:40:00.0,여관업,8.0,20.0,0.0
440,남강,서울특별시 종로구 무악동 9-14번지 ,,,,19831129,,3,19990906,,,,2018-08-31 23:59:59.0,여인숙업,8.0,0.0,1.0
441,동화여관,서울특별시 중구 회현동1가 14-2번지 ,,,,19620101,,3,20050916,,,,2018-08-31 23:59:59.0,여관업,0.0,11.0,0.0
442,순안,서울특별시 종로구 창신동 448-12번지 ,서울특별시 종로구 종로46가길 20 (창신동),37.5708550907198,127.011546060207,19830329,,1,,,,,2019-06-06 02:40:00.0,여인숙업,16.0,0.0,1.0
443,종각장,서울특별시 종로구 공평동 38-0번지 ,,,,19800411,,3,19980123,,,,2018-08-31 23:59:59.0,여관업,28.0,0.0,3.0
444,달지 게스트하우스,서울특별시 종로구 낙원동 233,서울특별시 종로구 종로17길 46 (낙원동),37.5721772002398,126.98834393298,19861202,,1,,,,,2021-12-05 00:03:00.0,여관업,,,
445,에이치호스텔(H호스텔),서울특별시 용산구 이태원동 99-16 소망빌딩 1층~4층,"서울특별시 용산구 보광로 103-2, 소망빌딩 1층~4층 (이태원동)",37.5320708902887,126.994590984053,20220718,,1,,,,,2021-12-06 22:00:00.0,관광호텔,,,
446,호텔리베라,서울특별시 강남구 청담동 53-7,서울특별시 강남구 영동대로 737 (청담동),37.523826465874,127.054240091718,1987-12-09,,1,,,,,2022-12-01 23:05:00.0,관광호텔,,,
447,운당,서울특별시 종로구 운니동 65-1번지 ,,37.5757665643856,126.989088143318,19770915,,3,19890731,,,,2018-08-31 23:59:59.0,여관업,0.0,0.0,28.0
448,BM,서울특별시 종로구 창신동 436-13 ,서울특별시 종로구 종로44길 22 (창신동),37.570607594927,127.011467916558,19720113,,1,,,,,2020-10-21 02:40:00.0,여관업,12.0,0.0,1.0
449,G3호텔,서울특별시 중구 필동1가 44-1,"서울특별시 중구 충무로 7, 지하4층~지상19층 (필동1가)",37.5618096233562,126.992915763972,20221111,,1,,,,,2021-10-31 23:03:00.0,관광호텔,,,
450,호텔 제로,서울특별시 종로구 원남동 257-1 ,서울특별시 종로구 창경궁로 135-9 (원남동),37.5745829397537,126.996858296254,19860624,,1,,,,,2021-09-30 02:40:00.0,여관업,7.0,6.0,9.0
451,신신,서울특별시 도봉구 쌍문동 103-84번지 ,,,,19701124,,3,20030801,,,,2018-08-31 23:59:59.0,여관업,8.0,1.0,0.0
452,호텔리베라 아노블리,서울특별시 강남구 청담동 91-2,"서울특별시 강남구 도산대로 419, 5층,6층,7층 (청담동)",37.5238470742915,127.041649227685,2019-05-14,,1,,,,,2022-12-01 23:05:00.0,관광호텔,,,
453,(주)호텔롯데 L7 강남,서울특별시 강남구 삼성동 142-41,"서울특별시 강남구 테헤란로 415, 1층,9층~27층 (삼성동, L7 HOTELS 강남타워)",37.5057885877997,127.051541631852,2017-12-05,,1,,,,,2022-12-01 22:05:00.0,관광호텔,,,
454,은성,서울특별시 종로구 명륜2가 167-1번지 ,,37.583958721785,126.999111929719,19841205,,3,19910625,,,,2018-08-31 23:59:59.0,여관업,11.0,8.0,8.0
455,진흥,서울특별시 종로구 숭인동 190-4번지 ,서울특별시 종로구 종로67길 3-6 (숭인동),37.5751162645937,127.0207162838,19731017,,1,,,,,2019-11-24 02:40:00.0,여인숙업,10.0,0.0,1.0
456,부띠끄 역삼,서울특별시 강남구 역삼동 720-17,서울특별시 강남구 언주로87길 6 (역삼동),,,1984-11-19,,3,2023-02-28,,,,2022-12-02 00:05:00.0,여관업,,,
457,수정,서울특별시 종로구 숭인동 188번지 ,서울특별시 종로구 종로67길 3-12 (숭인동),,,19691210,,1,,,,,2018-08-31 23:59:59.0,여인숙업,8.0,0.0,0.0
458,오마이인,서울특별시 종로구 창신동 383,서울특별시 종로구 종로 322-6 (창신동),37.5719932076726,127.013439592189,1993-11-16,,1,,,,,2022-12-02 23:01:00.0,여관업,,,
459,르몽호텔,서울특별시 종로구 관철동 34-1,서울특별시 종로구 종로16길 28 (관철동),37.5688707409026,126.988479827874,20041108,,1,,,,,2021-10-31 00:08:00.0,여관업,,,
460,(주)호텔롯데롯데호텔월드,서울특별시 송파구 잠실동 40-1,서울특별시 송파구 올림픽로 240 (잠실동),37.5113096112036,127.098141751177,2003-02-27,,1,,,,,2022-12-01 23:09:00.0,관광호텔,,,
461,얼데인(all dayinn),서울특별시 종로구 효제동 21-10,서울특별시 종로구 대학로 39 (효제동),37.5747705557218,127.001747508464,19821020,,3,20220816,,,,2021-12-07 23:08:00.0,여관업,,,
462,동미,서울특별시 종로구 숭인동 178-73,서울특별시 종로구 종로65길 12-28 (숭인동),37.5753773597411,127.020790730837,19671121,,1,,,,,2021-10-31 23:02:00.0,여관업,,,
463,시그니엘서울 호텔,서울특별시 송파구 신천동 29 롯데월드타워,"서울특별시 송파구 올림픽로 300, 롯데월드타워 (신천동)",37.5137519612953,127.104446890835,2017-03-17,,1,,,,,2022-12-01 23:05:00.0,관광호텔,,,
464,YMCA관광호텔,서울특별시 종로구 종로2가 9,서울특별시 종로구 종로 69 (종로2가),37.5705768749389,126.98531414524,19740401,,1,,,,,2021-11-01 22:04:00.0,관광호텔,,,
465,스타호스텔,서울특별시 종로구 돈의동 19,서울특별시 종로구 돈화문로11다길 9 (돈의동),37.5728779208673,126.990547369715,20020122,,3,20220525,,,,2021-12-04 22:07:00.0,여관업,,,
466,우정파크,서울특별시 동대문구 용두동 39-77,서울특별시 동대문구 천호대로45가길 46 (용두동),37.5763045273175,127.041466054691,19671019,,1,,,,,2021-12-06 22:00:00.0,여관업,,,
467,쉘라근,서울특별시 종로구 명륜4가 196-9번지 ,서울특별시 종로구 창경궁로 229-8 (명륜4가),37.5827909262688,126.99775506495,19870625,,1,,,,,2018-08-31 23:59:59.0,여관업,14.0,0.0,9.0
468,한평,서울특별시 종로구 관철동 18-6번지 ,서울특별시 종로구 종로12길 6-11 (관철동),37.569705845108,126.985015028872,19770701,,1,,,,,2019-06-06 02:40:00.0,여관업,6.0,8.0,18.0
469,동우,서울특별시 종로구 청진동 248-4번지 ,,,,19870605,,3,20011231,,,,2018-08-31 23:59:59.0,여관업,15.0,0.0,1.0
470,원미닛 게스트하우스,서울특별시 종로구 관철동 43-15,"서울특별시 종로구 종로8길 15, 4~5층 (관철동)",,,2015-12-24,,1,,,,,2022-12-03 00:03:00.0,숙박업 기타,,,
471,호텔베뉴지,서울특별시 종로구 관수동 124,서울특별시 종로구 청계천로 117 (관수동),37.5686058675384,126.990748035303,2016-02-17,,1,,,,,2022-12-04 00:08:00.0,관광호텔,,,
472,덕성,서울특별시 종로구 낙원동 162-0번지 ,,37.5712257974797,126.989839869443,19880830,,3,19960305,,,,2018-08-31 23:59:59.0,여관업,10.0,10.0,20.0
473,현대,서울특별시 종로구 창신동 448-11번지 ,서울특별시 종로구 종로46가길 16 (창신동),37.5709437528748,127.011502832716,19861201,,1,,,,,2019-06-06 02:40:00.0,여인숙업,12.0,0.0,2.0
474,인터넷모텔,서울특별시 종로구 종로5가 231-24 ,서울특별시 종로구 종로36가길 16 (종로5가),37.5705952598806,127.004808011807,19830726,,1,,,,,2020-10-18 02:40:00.0,여인숙업,0.0,20.0,1.0
475,반도,서울특별시 종로구 창신동 533-1번지 ,,37.5722011258387,127.012062906896,19821229,,3,19950726,,,,2018-08-31 23:59:59.0,여관업,10.0,0.0,7.0
476,저스트포유(JUST4U),서울특별시 종로구 종로6가 119번지 ,서울특별시 종로구 종로43길 5 (종로6가),37.5715865824418,127.007377551847,19770526,,1,,,,,2019-06-06 02:40:00.0,여관업,0.0,9.0,11.0
477,대풍,서울특별시 종로구 청진동 102-0번지 ,,37.5709617749066,126.981437983842,19840601,,3,19990609,,,,2018-08-31 23:59:59.0,여관업,20.0,0.0,0.0
478,승학,서울특별시 종로구 숭인동 201-15번지 ,서울특별시 종로구 종로66가길 14 (숭인동),37.5736680294658,127.021090690883,20160701,,1,,,,,2019-08-15 02:40:00.0,여관업,0.0,28.0,0.0
479,호텔팝3,서울특별시 종로구 낙원동 184번지 ,서울특별시 종로구 수표로22길 10 (낙원동),37.5710773184203,126.989897620085,20120321,,1,,,,,2018-08-31 23:59:59.0,여관업,0.0,12.0,0.0
480,스타호스텔 동대문점(star hostel dongdaemun),서울특별시 종로구 효제동 243번지 ,서울특별시 종로구 대학로2길 25 (효제동),37.5716276685352,127.003422423439,19731229,,1,,,,,2019-12-25 02:40:00.0,여관업,12.0,0.0,11.0
481,리치하우스,서울특별시 종로구 숭인동 352번지 ,서울특별시 종로구 보문로7길 6-15 (숭인동),37.5777812140613,127.022265922337,19880528,,1,,,,,2019-06-06 02:40:00.0,여관업,3.0,9.0,10.0
482,광화장,서울특별시 종로구 당주동 170-1번지 ,서울특별시 종로구 새문안로5길 5-3 (당주동),37.5708648152109,126.974596174086,19720118,,1,,,,,2018-08-31 23:59:59.0,여관업,31.0,0.0,11.0
483,동해,서울특별시 종로구 창신동 449-16번지 ,서울특별시 종로구 종로46가길 17 (창신동),37.5709814929686,127.011621355632,19840619,,1,,,,,2019-06-06 02:40:00.0,여인숙업,16.0,0.0,1.0
484,오요 호스텔 명동2,서울특별시 중구 충무로2가 61-2 5~7층,"서울특별시 중구 명동8가길 52 (충무로2가, 5~7층)",37.5617489452835,126.987959717335,20170925,,1,,,,,2021-12-04 23:01:00.0,여관업,,,
485,강남아르누보씨티호텔,"서울특별시 서초구 서초동 1330-4 ,5호 3층~12층","서울특별시 서초구 서초대로74길 49, 3층~12층 (서초동)",37.493414584039,127.028138184682,2014-04-15,,1,,,,,2022-12-01 22:04:00.0,숙박업(생활),,,
486,시크릿 호텔2,"서울특별시 강남구 대치동 890-61 5,6층","서울특별시 강남구 테헤란로68길 13 (대치동,5,6층)",37.5045001268672,127.052616632093,20061018,,1,,,,,2021-12-04 23:01:00.0,여관업,,,
487,노블관광호텔,서울특별시 종로구 운니동 19번지 ,서울특별시 종로구 율곡로6길 13-3 (운니동),37.576677071828,126.989672150736,20051215,,1,,,,,2019-06-22 02:40:00.0,관광호텔,0.0,34.0,0.0
488,시네마모텔,서울특별시 종로구 낙원동 84번지 ,서울특별시 종로구 수표로28길 12-5 (낙원동),37.5731871188693,126.989221982716,20040209,,1,,,,,2018-08-31 23:59:59.0,여관업,0.0,46.0,0.0
489,미니호텔달콤2,서울특별시 종로구 창신동 449-15번지 ,서울특별시 종로구 종로46가길 15-4 (창신동),37.5710320260959,127.011749728809,19861201,,1,,,,,2018-08-31 23:59:59.0,여인숙업,10.0,0.0,1.0
490,라마,서울특별시 광진구 중곡동 210-10,서울특별시 광진구 면목로 183-1 (중곡동),37.5696079306951,127.082931469949,19831024,,1,,,,,2021-11-01 00:02:00.0,여관업,,,
491,포시즌스 호텔 서울(Fourseasons Hotel Seoul),서울특별시 종로구 당주동 29번지 ,"서울특별시 종로구 새문안로 97, 10~25층 (당주동)",,,20150902,,1,,,,,2018-08-31 23:59:59.0,관광호텔,0.0,317.0,0.0
492,더 베이지,서울특별시 종로구 창신동 143-15번지 ,서울특별시 종로구 종로51나길 6 (창신동),37.5727180136016,127.01219033969,19831216,,1,,,,,2018-08-31 23:59:59.0,여관업,1.0,12.0,0.0
493,별장,서울특별시 종로구 창신동 448-4 ,서울특별시 종로구 종로46가길 10 (창신동),37.570930171082,127.011261834678,19830825,,1,,,,,2020-10-10 02:40:00.0,여관업,18.0,0.0,18.0
494,브릭스,서울특별시 종로구 명륜3가 149 ,서울특별시 종로구 성균관로1길 6-2 (명륜3가),37.5834409082346,126.99805472745,19670803,,1,,,,,2022-01-06 02:40:00.0,여관업,19.0,0.0,19.0
495,테크노모텔,서울특별시 종로구 낙원동 191번지 ,서울특별시 종로구 돈화문로5길 28-3 (낙원동),37.5708764408522,126.990430237695,19811127,,1,,,,,2018-08-31 23:59:59.0,여관업,1.0,24.0,22.0
496,동성,서울특별시 종로구 숭인동 264번지 ,서울특별시 종로구 종로58길 6-6 (숭인동),37.5730312658811,127.01740992778,19690108,,1,,,,,2018-08-31 23:59:59.0,여관업,10.0,0.0,10.0
497,아마레,서울특별시 종로구 낙원동 163번지 외 1필지(165번지) ,"서울특별시 종로구 수표로22길 7 (낙원동,외 1필지(165번지))",37.5714171635155,126.989777924404,20110609,,1,,,,,2020-02-28 02:40:00.0,여관업,0.0,62.0,0.0
498,모화하우스,서울특별시 종로구 숭인동 1137 흥인여관,"서울특별시 종로구 보문로1길 7-6, 흥인여관 (숭인동)",37.5764164599251,127.022361400671,19681128,,1,,,,,2021-11-02 00:08:00.0,여관업,,,
499,순라스테이,서울특별시 종로구 권농동 155-2,서울특별시 종로구 율곡로10길 17 (권농동),37.5766799839036,126.991136010466,19700202,,1,,,,,2021-11-01 22:02:00.0,여관업,,,
500,대림여관,서울특별시 은평구 진관동 251-8번지 ,,,,19760228,,3,20061229,,,,2018-08-31 23:59:59.0,여관업,7.0,5.0,12.0
501,수모텔,서울특별시 종로구 돈의동 134 ,서울특별시 종로구 수표로22길 50-4 (돈의동),37.5712668209532,126.991322521996,19830709,,1,,,,,2022-03-27 02:40:00.0,여관업,14.0,0.0,3.0
502,스테이 위켄드,서울특별시 종로구 종로5가 118,서울특별시 종로구 종로31길 12-5 (종로5가),37.5716868233849,127.000098708593,19860709,,1,,,,,2021-12-03 22:07:00.0,여관업,,,
503,대진,서울특별시 종로구 창신동 555번지 ,서울특별시 종로구 창신1길 6 (창신동),37.572192582062,127.010979028036,19660420,,1,,,,,2018-08-31 23:59:59.0,여관업,10.0,0.0,10.0
504,샤르망모텔,서울특별시 강서구 화곡동 981-13,서울특별시 강서구 화곡로50길 5 (화곡동),37.5497775838661,126.848362062146,19860816,,1,,,,,2021-10-31 23:08:00.0,여관업,,,
505,킴스관광호텔,서울특별시 종로구 평창동 66-50번지 ,서울특별시 종로구 평창문화로 136 (평창동),37.6094969619613,126.975156904149,19900929,,1,,,,,2018-12-04 02:40:00.0,관광호텔,8.0,43.0,51.0
506,태영,서울특별시 종로구 숭인동 241-16번지 ,,37.5713476551046,127.01808498483,19711222,,3,19951221,,,,2018-08-31 23:59:59.0,여인숙업,9.0,0.0,0.0
507,대림장,서울특별시 종로구 와룡동 54번지 ,서울특별시 종로구 율곡로8길 57 (와룡동),37.5748375487501,126.991250903185,19840521,,1,,,,,2019-06-06 02:40:00.0,여관업,10.0,0.0,0.0
508,동대문관광호텔,서울특별시 종로구 창신동 444-14번지 ,서울특별시 종로구 종로 286 (창신동),37.5708583552678,127.010348326711,19731124,,1,,,,,2018-08-31 23:59:59.0,관광호텔,6.0,46.0,0.0
509,투헤븐(2heaven),서울특별시 종로구 낙원동 133번지 ,서울특별시 종로구 수표로26길 11 (낙원동),37.5722549924572,126.989703891085,20051206,,1,,,,,2019-06-06 02:40:00.0,일반호텔,0.0,38.0,0.0
510,캐슬장,서울특별시 종로구 숭인동 207-6번지 ,서울특별시 종로구 난계로29길 64-3 (숭인동),37.5737227930882,127.019620904446,19691230,,1,,,,,2019-07-17 02:40:00.0,여관업,15.0,0.0,15.0
511,덕림,서울특별시 서대문구 남가좌동 124-425번지 ,,,,19811204,,3,20140613,,,,2018-08-31 23:59:59.0,여관업,35.0,,35.0
512,대동,서울특별시 종로구 숭인동 217-6번지 ,,37.5730434844379,127.019911197372,19710426,,3,19941221,,,,2018-08-31 23:59:59.0,여인숙업,9.0,0.0,1.0
513,풀리 미니호텔,서울특별시 종로구 관수동 57 ,서울특별시 종로구 종로18길 5 (관수동),37.5699367704595,126.991306262988,19830628,,1,,,,,2021-05-22 02:40:00.0,여관업,10.0,10.0,10.0
514,호텔 라와,서울특별시 종로구 낙원동 135-1 ,서울특별시 종로구 수표로26길 3 (낙원동),37.5722752176921,126.989176721406,19890310,,1,,,,,2020-11-22 02:40:00.0,여관업,14.0,20.0,11.0
515,일창,서울특별시 종로구 숭인동 178-158번지 ,,,,19650329,,3,19950629,,,,2018-08-31 23:59:59.0,여인숙업,24.0,0.0,1.0
516,센츄럴관광호텔,서울특별시 종로구 장사동 227-1번지 ,서울특별시 종로구 청계천로 137 (장사동),37.5689789423589,126.992961947263,19691208,,1,,,,,2018-08-31 23:59:59.0,관광호텔,10.0,62.0,72.0
517,아로마,서울특별시 종로구 체부동 48번지 ,서울특별시 종로구 자하문로 9 (체부동),37.5769157929272,126.972141061212,19710130,,1,,,,,2018-08-31 23:59:59.0,여관업,11.0,12.0,0.0
518,정선,서울특별시 종로구 창신동 401-11번지 ,,37.570871960847,127.017274834272,19720811,,3,20080707,,,,2018-08-31 23:59:59.0,여인숙업,8.0,,1.0
519,보광,서울특별시 종로구 창신동 375번지 ,,37.5718244871359,127.01312090912,19691218,,3,20061116,,,,2018-08-31 23:59:59.0,여인숙업,10.0,,1.0
520,아벤트리호텔종로점,서울특별시 종로구 견지동 65-1,서울특별시 종로구 우정국로 46 (견지동),37.5731064267821,126.98333864682,20121213,,3,20230113,,,,2022-11-30 23:08:00.0,관광호텔,,,
521,라휘느,서울특별시 종로구 돈의동 161-3번지 ,서울특별시 종로구 수표로22길 24 (돈의동),37.5712562345046,126.990732991812,19881026,,1,,,,,2018-08-31 23:59:59.0,여관업,0.0,16.0,10.0
522,(주)종로크라운,서울특별시 종로구 낙원동 33,서울특별시 종로구 삼일대로30길 9 (낙원동),37.5739939526277,126.988204864886,19911104,,1,,,,,2021-12-04 00:07:00.0,관광호텔,,,
523,호텔 동그라미,서울특별시 송파구 방이동 47-4,서울특별시 송파구 오금로11길 47-10 (방이동),37.5159349318593,127.112849636705,20030227,,1,,,,,2021-12-06 22:03:00.0,일반호텔,,,
524,미성,서울특별시 종로구 효제동 293-2번지 ,,37.5731671374056,127.002220534501,19670830,,3,20010625,,,,2018-08-31 23:59:59.0,여관업,13.0,0.0,10.0
525,아미가인 서울 호텔,서울특별시 종로구 연지동 193-9,서울특별시 종로구 종로31길 46-8 (연지동),37.5727053068722,126.999425965492,20010119,,1,,,,,2021-12-03 22:08:00.0,여관업,,,
526,해피데이,서울특별시 구로구 가리봉동 121-15,서울특별시 구로구 구로동로 15-12 (가리봉동),37.4831085641403,126.88618443785,19731106,,1,,,,,2021-12-06 22:03:00.0,여인숙업,,,
527,시티파크호텔,서울특별시 종로구 운니동 24-1번지 ,서울특별시 종로구 돈화문로11가길 89 (운니동),37.5765164384231,126.989832245128,19961108,,1,,,,,2018-08-31 23:59:59.0,일반호텔,0.0,43.0,43.0
528,허브모텔,서울특별시 종로구 효제동 207-0,서울특별시 종로구 종로35길 26-4 (효제동),37.572263389409,127.004091231042,19680125,,1,,,,,2021-10-30 22:01:00.0,여관업,,,
529,제이미니호텔,서울특별시 종로구 관수동 56 ,서울특별시 종로구 종로18길 7 (관수동),37.5698363092945,126.991303897567,19880426,,1,,,,,2021-08-12 02:40:00.0,여관업,4.0,17.0,0.0
530,성,서울특별시 마포구 아현동 115-0번지 ,,,,19671202,,3,19940523,,,,2018-08-31 23:59:59.0,여인숙업,7.0,0.0,0.0
531,영모텔,서울특별시 종로구 숭인동 339번지 ,서울특별시 종로구 보문로7길 5-1 (숭인동),37.5774457936005,127.022636121388,19650510,,1,,,,,2018-08-31 23:59:59.0,여관업,10.0,0.0,10.0
532,가야,서울특별시 종로구 숭인동 1092번지 ,서울특별시 종로구 보문로3길 17-4 (숭인동),37.5767859369815,127.0224706414,19700811,,1,,,,,2018-08-31 23:59:59.0,여관업,11.0,0.0,11.0
533,메트로 21(Metro 21),서울특별시 종로구 숭인동 211-14번지 ,서울특별시 종로구 난계로29길 65-15 (숭인동),37.572988390223,127.020167014469,19931101,,1,,,,,2018-12-19 02:40:00.0,여관업,15.0,0.0,15.0
534,호텔 야자(종로점),서울특별시 종로구 낙원동 87-1번지 ,서울특별시 종로구 수표로28길 9-1 (낙원동),37.5730850981567,126.988918621302,20010315,,1,,,,,2018-08-31 23:59:59.0,여관업,0.0,60.0,0.0
535,동화,서울특별시 종로구 무악동 46-61번지 ,,,,19870421,,3,20011220,,,,2018-08-31 23:59:59.0,여관업,13.0,0.0,13.0
536,백제장,서울특별시 종로구 효제동 179-2번지 ,서울특별시 종로구 대학로2길 49-2 (효제동),37.5716008565774,127.004907690513,19900512,,1,,,,,2019-11-17 02:40:00.0,여관업,11.0,19.0,30.0
537,스카이모텔,서울특별시 종로구 효제동 199번지 ,서울특별시 종로구 종로35가길 3 (효제동),37.5719810158464,127.004140004094,19950707,,1,,,,,2018-08-31 23:59:59.0,여관업,13.0,20.0,33.0
538,미라지모텔,서울특별시 종로구 홍지동 94-42번지 ,서울특별시 종로구 세검정로6길 4 (홍지동),37.6006230770233,126.959428084779,19840830,,1,,,,,2018-08-31 23:59:59.0,여관업,5.0,11.0,0.0
539,호스텔 서울,서울특별시 종로구 숭인동 414 ,서울특별시 종로구 보문로9길 9 (숭인동),37.5784055913702,127.022327580258,19670202,,1,,,,,2021-03-28 02:40:00.0,여관업,0.0,16.0,14.0
540,MG HOTEL(엠지호텔),서울특별시 종로구 관철동 177 MG호텔 ,"서울특별시 종로구 청계천로 63-3, MG호텔 (관철동)",37.5688741676308,126.984560156935,20180502,,1,,,,,2020-07-05 02:40:00.0,여관업,0.0,39.0,0.0
541,비원게스트하우스,서울특별시 종로구 운니동 28-2번지 ,서울특별시 종로구 돈화문로11가길 77-4 (운니동),37.5760763110609,126.98993056654,19790623,,1,,,,,2019-06-06 02:40:00.0,여관업,3.0,17.0,17.0
542,창신기지,서울특별시 종로구 창신동 459-35번지 ,서울특별시 종로구 종로48길 31 (창신동),37.5712386698007,127.012189645781,20170523,,1,,,,,2019-12-11 02:40:00.0,숙박업(생활),0.0,1.0,0.0
543,굳모닝모텔,서울특별시 중구 북창동 18-1번지 ,,37.5631936500656,126.97773853305,20001019,,3,20030226,,,,2018-08-31 23:59:59.0,여관업,0.0,7.0,0.0
544,세림여관,서울특별시 종로구 관훈동 192-17번지 ,서울특별시 종로구 인사동길 37-11 (관훈동),37.5734215075598,126.984690530819,19840402,,1,,,,,2019-12-11 02:40:00.0,여관업,4.0,22.0,22.0
545,비즈,서울특별시 종로구 낙원동 75 ,서울특별시 종로구 삼일대로26길 7 (낙원동),37.5732971565821,126.988543783474,19820906,,1,,,,,2022-03-17 02:40:00.0,일반호텔,0.0,32.0,0.0
546,아이비레지던스,서울특별시 종로구 관철동 18-7 ,"서울특별시 종로구 우정국로2길 35, 5층 (관철동)",37.5696373691098,126.985012325914,20170201,,1,,,,,2020-09-02 02:40:00.0,여인숙업,0.0,38.0,0.0
547,모텔 와,서울특별시 종로구 효제동 215-1번지 ,서울특별시 종로구 종로35길 30-8 (효제동),37.5726111689005,127.00422176889,19841210,,1,,,,,2018-08-31 23:59:59.0,여관업,0.0,18.0,13.0
548,VATICA HOTEL(바티카 호텔),서울특별시 종로구 창신동 436-73 ,서울특별시 종로구 청계천로 341 (창신동),37.5701283417787,127.015528054913,19700123,,1,,,,,2020-12-11 02:40:00.0,관광호텔,2.0,48.0,0.0
549,익선,서울특별시 종로구 익선동 85 ,서울특별시 종로구 돈화문로11가길 43-4 (익선동),37.5745802476215,126.990387539293,19980723,,3,20210413,,,,2021-04-15 02:40:00.0,여인숙업,9.0,0.0,3.0
550,엠제이게스트하우스(MJ GUEST HOUSE),서울특별시 종로구 관철동 180번지 ,"서울특별시 종로구 삼일대로17길 51, 8층 (관철동)",37.5690890643134,126.984630972017,20170203,,1,,,,,2019-12-11 02:40:00.0,숙박업(생활),0.0,10.0,0.0
551,라임모텔,서울특별시 종로구 종로5가 93 ,서울특별시 종로구 대학로1길 9 (종로5가),37.5713286714018,127.001232832727,19760209,,1,,,,,2020-11-17 02:40:00.0,여인숙업,18.0,0.0,2.0
552,호텔팝 리즈 프리미어,서울특별시 종로구 낙원동 186 ,서울특별시 종로구 수표로22길 16 (낙원동),37.5710366195692,126.990207785207,20020706,,1,,,,,2021-10-24 02:40:00.0,일반호텔,0.0,34.0,0.0
553,고려,서울특별시 종로구 연지동 196번지 ,,37.5727873868993,126.999310614476,19841023,,3,20040709,,,,2018-08-31 23:59:59.0,여관업,10.0,,10.0
554,이지스테이,서울특별시 종로구 창신동 687-20,서울특별시 종로구 창신길 9-8 (창신동),37.5723495201743,127.010142058185,1960-12-19,,1,,,,,2022-12-03 00:08:00.0,여관업,,,
555,신라스테이 광화문,서울특별시 종로구 수송동 51-8번지 ,서울특별시 종로구 삼봉로 71 (수송동),37.5726674875411,126.981114262989,20151216,,1,,,,,2018-08-31 23:59:59.0,관광호텔,0.0,339.0,0.0
556,부전,서울특별시 종로구 창신동 580-32번지 ,서울특별시 종로구 창신1길 9 (창신동),37.5722823844388,127.011263849472,19810706,,1,,,,,2019-11-17 02:40:00.0,여관업,10.0,0.0,10.0
557,티(T),서울특별시 종로구 돈의동 163번지 ,서울특별시 종로구 수표로22길 20-3 (돈의동),37.571106933815,126.990659658623,20010228,,1,,,,,2019-10-06 02:40:00.0,여관업,0.0,32.0,0.0
558,대원,서울특별시 종로구 당주동 26번지 ,,,,19860325,,3,20100607,,,,2018-08-31 23:59:59.0,여인숙업,14.0,,2.0
559,신생여관,서울특별시 성동구 금호동4가 878-0번지 ,,,,19680413,,3,19980406,,,,2018-08-31 23:59:59.0,여관업,0.0,0.0,0.0
560,덕흥,서울특별시 종로구 숭인동 1132번지 ,서울특별시 종로구 보문로1길 7-14 (숭인동),37.5763774661455,127.022259391283,20020207,,1,,,,,2018-08-31 23:59:59.0,여관업,13.0,0.0,0.0
561,아세아,서울특별시 종로구 익선동 85-0번지 ,,37.5745761924906,126.990379502451,19760209,,3,19980718,,,,2018-08-31 23:59:59.0,여인숙업,6.0,0.0,0.0
562,인사호스텔,서울특별시 종로구 관훈동 95번지 ,서울특별시 종로구 인사동14길 48 (관훈동),37.5749466158541,126.984647767533,19861028,,1,,,,,2018-08-31 23:59:59.0,여관업,15.0,0.0,6.0
563,호텔 월하여관,서울특별시 종로구 와룡동 33 ,서울특별시 종로구 율곡로10길 24 (와룡동),37.5764164270417,126.990925480247,20010105,,1,,,,,2020-11-21 02:40:00.0,여관업,0.0,23.0,0.0
564,문화,서울특별시 종로구 운니동 69번지 ,,37.5757496883118,126.988794834017,19760209,,3,20040128,,,,2018-08-31 23:59:59.0,여인숙업,12.0,,1.0
565,Z 호텔,서울특별시 종로구 돈의동 92 ,서울특별시 종로구 수표로22길 23 (돈의동),37.5713520025146,126.990634384993,19841006,,1,,,,,2020-09-06 02:40:00.0,여관업,0.0,13.0,0.0
566,누누모텔,서울특별시 종로구 낙원동 180번지 ,서울특별시 종로구 수표로22길 6 (낙원동),37.5709699888291,126.989654487765,20030902,,1,,,,,2018-08-31 23:59:59.0,여관업,0.0,44.0,0.0
567,HOTEL THE MAY,서울특별시 종로구 돈의동 76-2번지 ,서울특별시 종로구 수표로26길 10 (돈의동),37.5719842318505,126.989571939051,19861117,,1,,,,,2020-02-22 02:40:00.0,일반호텔,0.0,42.0,31.0
568,대구,서울특별시 종로구 창신동 464-10번지 ,서울특별시 종로구 종로48길 8-2 (창신동),37.57144850535,127.011348395667,19831121,,1,,,,,2018-10-26 02:36:01.0,여관업,10.0,0.0,6.0
569,호텔앳홈,서울특별시 종로구 연지동 200번지 ,서울특별시 종로구 종로31길 40 (연지동),37.5726722394027,126.999255374221,20020910,,1,,,,,2018-08-31 23:59:59.0,여관업,0.0,45.0,0.0
570,호텔더디자이너스 종로,서울특별시 종로구 관수동 14-1번지 ,서울특별시 종로구 수표로 89-8 (관수동),37.5693669711445,126.989025574921,19651218,,1,,,,,2020-06-10 02:40:00.0,일반호텔,0.0,81.0,41.0
571,수모텔,서울특별시 종로구 필운동 131번지 ,서울특별시 종로구 사직로9길 10 (필운동),37.5766942627651,126.968308231806,19850416,,1,,,,,2018-08-31 23:59:59.0,여관업,31.0,0.0,31.0
572,88,서울특별시 종로구 운니동 45-5번지 ,,37.5757721944827,126.989574240949,19760209,,3,20040130,,,,2018-08-31 23:59:59.0,여인숙업,6.0,,6.0
573,호텔 스타,서울특별시 종로구 낙원동 153-2번지 ,서울특별시 종로구 돈화문로9길 29 (낙원동),37.5715347689411,126.990077429437,20031117,,1,,,,,2018-08-31 23:59:59.0,여관업,0.0,25.0,0.0
574,덕흥,서울특별시 성동구 하왕십리동 840-1번지 ,,,,19670706,,3,19970725,,,,2018-08-31 23:59:59.0,여관업,0.0,0.0,0.0
575,(주)신영SPS지점,서울특별시 종로구 수송동 85번지 ,"서울특별시 종로구 율곡로2길 7, 5~18층 (수송동)",,,20121114,,1,,,,,2018-08-31 23:59:59.0,숙박업(생활),0.0,416.0,0.0
576,트래블몬스터,서울특별시 종로구 종로5가 54번지 ,서울특별시 종로구 종로 227-6 (종로5가),37.5714497330307,127.003017507593,19860626,,1,,,,,2018-08-31 23:59:59.0,여관업,16.0,1.0,16.0
577,한림,서울특별시 종로구 낙원동 194-0번지 ,,37.5707609102334,126.990150317468,19870620,,3,19960104,,,,2018-08-31 23:59:59.0,여인숙업,8.0,0.0,2.0
578,동문모텔,서울특별시 종로구 창신동 447-2번지 ,서울특별시 종로구 종로46가길 8 (창신동),37.5709133398746,127.011077887414,19890513,,1,,,,,2018-08-31 23:59:59.0,여관업,14.0,0.0,14.0
579,OK.Vill,서울특별시 종로구 익선동 45번지 ,서울특별시 종로구 삼일대로32가길 29-4 (익선동),37.5747055882429,126.989474884655,20130515,,1,,,,,2019-06-06 02:40:00.0,숙박업(생활),0.0,13.0,0.0
580,한도,서울특별시 종로구 창신동 395-28번지 ,서울특별시 종로구 지봉로4길 8-3 (창신동),37.5710267898558,127.016375860034,19671227,,1,,,,,2019-06-06 02:40:00.0,여인숙업,9.0,0.0,1.0
581,에비뉴162,서울특별시 종로구 낙원동 162번지 ,서울특별시 종로구 수표로22길 9 (낙원동),37.5712247155642,126.989831492995,19960504,,1,,,,,2019-06-06 02:40:00.0,여관업,4.0,10.0,14.0
582,호텔팝2,서울특별시 종로구 낙원동 185-1번지 ,서울특별시 종로구 수표로22길 14 (낙원동),37.5710926516593,126.990090166159,20120215,,1,,,,,2019-12-28 02:40:00.0,여관업,0.0,12.0,0.0
583,영진,서울특별시 종로구 숭인동 1126번지 ,서울특별시 종로구 보문로1길 7-22 (숭인동),37.5760749189664,127.022223528581,19690618,,1,,,,,2019-07-31 02:40:00.0,여관업,9.0,0.0,7.0
584,벤허모텔2,서울특별시 종로구 종로5가 110번지 ,서울특별시 종로구 대학로1길 37 (종로5가),37.5718065651633,127.000349895355,19930818,,1,,,,,2018-08-31 23:59:59.0,여관업,26.0,0.0,26.0
585,짝모텔,서울특별시 종로구 명륜4가 66-2 ,서울특별시 종로구 대명1길 18 (명륜4가),37.5828627561223,127.000398289833,19870408,,1,,,,,2021-10-22 02:40:00.0,여관업,13.0,0.0,13.0
586,중앙여관,서울특별시 성동구 상왕십리동 28-4번지 ,,,,19740121,,3,19970725,,,,2018-08-31 23:59:59.0,여관업,0.0,0.0,0.0
587,다나 호텔,서울특별시 종로구 관수동 137번지 외2필지 ,"서울특별시 종로구 수표로18길 10 (관수동,외2필지)",37.5691752454874,126.990115549292,20041129,,1,,,,,2020-06-19 02:40:00.0,일반호텔,0.0,58.0,0.0
588,성동,서울특별시 성동구 행당동 68-0번지 ,,,,19660830,,3,19970721,,,,2018-08-31 23:59:59.0,여관업,9.0,0.0,0.0
589,풍년여인숙,서울특별시 종로구 무악동 46-36번지 ,,,,19821015,,3,20120913,,,,2018-08-31 23:59:59.0,여인숙업,7.0,,1.0
590,호텔그림,서울특별시 종로구 낙원동 132-5 ,서울특별시 종로구 수표로26길 9 (낙원동),37.5722300237986,126.989577451519,20150514,,1,,,,,2021-12-10 02:40:00.0,일반호텔,0.0,25.0,0.0
591,세피앙,서울특별시 종로구 익선동 80번지 ,서울특별시 종로구 돈화문로11가길 49 (익선동),37.5747886537349,126.990461999831,19950807,,1,,,,,2019-06-06 02:40:00.0,여관업,3.0,17.0,0.0
592,창경,서울특별시 종로구 원남동 197-1번지 ,,37.5757948553073,126.996425352685,19850215,,3,19960429,,,,2018-08-31 23:59:59.0,여인숙업,8.0,0.0,2.0
593,소풍모텔,서울특별시 종로구 명륜4가 46-3번지 ,서울특별시 종로구 대명길 19-4 (명륜4가),37.5831742291487,127.000503355308,19850906,,1,,,,,2018-08-31 23:59:59.0,여관업,11.0,0.0,11.0
594,호텔 노바,서울특별시 종로구 낙원동 132-6번지 외1필지(132-7) ,"서울특별시 종로구 수표로26길 7 (낙원동,외1필지(132-7))",37.5722137058307,126.989465273857,20040421,,1,,,,,2019-09-29 02:40:00.0,여관업,0.0,29.0,0.0
595,용진,서울특별시 종로구 당주동 170-6번지 ,,,,19810725,,3,19960415,,,,2018-08-31 23:59:59.0,여관업,15.0,0.0,3.0
596,호텔가온,서울특별시 종로구 창신동 459-27 ,서울특별시 종로구 종로48길 17 (창신동),37.571547285347,127.011948132154,19850930,,1,,,,,2020-12-25 02:40:00.0,여관업,16.0,0.0,6.0
597,자하문호텔,서울특별시 종로구 구기동 119번지 ,서울특별시 종로구 진흥로 425 (구기동),37.6088132009338,126.956003247374,19850118,,1,,,,,2018-08-31 23:59:59.0,여관업,5.0,30.0,14.0
598,쁘띠호텔 통통,서울특별시 종로구 봉익동 6-0번지 ,서울특별시 종로구 율곡로10길 91 (봉익동),37.5735019572524,126.99185407943,19881007,,1,,,,,2019-06-06 02:40:00.0,여관업,19.0,10.0,29.0
599,미니호텔 달콤,서울특별시 종로구 창신동 450-6번지 ,서울특별시 종로구 종로48길 26-3 (창신동),37.5710534396964,127.012048232579,19820513,,1,,,,,2018-08-31 23:59:59.0,여인숙업,10.0,0.0,1.0
600,와이키키,서울특별시 종로구 숭인동 1408번지 ,서울특별시 종로구 난계로29길 19-5 (숭인동),,,20040729,,1,,,,,2018-08-31 23:59:59.0,여관업,7.0,13.0,0.0
601,용진,서울특별시 종로구 낙원동 76-0번지 ,,37.5732779796775,126.988691965651,19850520,,3,20020430,,,,2018-08-31 23:59:59.0,여관업,8.0,4.0,0.0
602,팰리스 모텔,서울특별시 종로구 명륜2가 21-15 ,서울특별시 종로구 창경궁로 258-6 (명륜2가),37.5839535892534,127.000222923287,19851112,,1,,,,,2022-01-12 02:40:00.0,여관업,0.0,18.0,18.0
603,인사동 미니 호텔,서울특별시 종로구 관훈동 84-4번지 ,서울특별시 종로구 인사동14길 26 (관훈동),37.5750771883334,126.985505706708,19880707,,1,,,,,2019-07-04 02:40:00.0,여관업,10.0,5.0,15.0
604,올리브,서울특별시 종로구 숭인동 200-32번지 ,서울특별시 종로구 난계로29길 56 (숭인동),37.5738328981752,127.020135093067,19831013,,1,,,,,2019-11-14 02:40:00.0,여관업,0.0,29.0,10.0
605,성도,서울특별시 종로구 숭인동 225-2 ,서울특별시 종로구 종로60길 7-1 (숭인동),37.5734253530573,127.018642433992,19700630,,1,,,,,2020-07-16 02:40:00.0,여인숙업,11.0,0.0,1.0
606,알리앙스,서울특별시 종로구 낙원동 160-1번지 ,서울특별시 종로구 수표로22길 15 (낙원동),37.571288624632,126.990168019952,20030630,,1,,,,,2018-08-31 23:59:59.0,여관업,0.0,29.0,0.0
607,헬로인 호텔,서울특별시 종로구 낙원동 149 ,서울특별시 종로구 돈화문로9길 38 (낙원동),37.5717998027188,126.989623809495,19820313,,1,,,,,2021-10-15 02:40:00.0,일반호텔,1.0,33.0,0.0
608,스카이모텔,서울특별시 종로구 낙원동 76번지 ,서울특별시 종로구 삼일대로26길 9 (낙원동),37.5732935666832,126.988689812487,20031028,,1,,,,,2018-08-31 23:59:59.0,여관업,2.0,19.0,0.0
609,올인모텔,서울특별시 종로구 숭인동 211-18번지 ,,37.5730931563234,127.020281487975,19980612,,3,20120905,,,,2018-08-31 23:59:59.0,여관업,36.0,,36.0
610,시덕,서울특별시 종로구 숭인동 97번지 ,,37.5736770256934,127.016669517568,19690828,,3,20070830,,,,2018-08-31 23:59:59.0,여인숙업,8.0,,1.0
611,서울관광호텔,서울특별시 종로구 청진동 92번지 ,,37.5709617749066,126.981437983842,19740612,,3,20080104,,,,2018-08-31 23:59:59.0,관광호텔,16.0,83.0,
612,윤텔,서울특별시 종로구 효제동 190번지 ,,37.5715482671054,127.004161940497,19670617,,3,20080603,,,,2018-08-31 23:59:59.0,여관업,23.0,,12.0
613,청아파크,서울특별시 종로구 원남동 66-10번지 ,,37.5748674113697,126.998168040027,19881119,,3,20100830,,,,2018-08-31 23:59:59.0,여관업,5.0,26.0,31.0
614,피카소모텔,서울특별시 종로구 낙원동 161,서울특별시 종로구 수표로22길 11 (낙원동),37.57127968825,126.989971510595,20040817,,1,,,,,2021-11-01 00:03:00.0,일반호텔,,,
615,호스텔코리아 익선,서울특별시 종로구 묘동 141,서울특별시 종로구 돈화문로 61 (묘동),37.5739134643691,126.990930651622,19770113,,1,,,,,2021-10-31 23:00:00.0,여관업,,,
616,꿈의궁전,서울특별시 종로구 낙원동 132-5번지 ,서울특별시 종로구 수표로26길 9 (낙원동),37.5722300237986,126.989577451519,19990625,,3,20150507,,,,2018-08-31 23:59:59.0,여관업,0.0,25.0,25.0
617,우미관호텔,"서울특별시 종로구 관철동 15-1번지 3,5,6층 ","서울특별시 종로구 종로14길 4 (관철동,3,5,6층)",37.5698255207023,126.98671553503,20070108,,1,,,,,2018-08-31 23:59:59.0,일반호텔,0.0,24.0,0.0
618,카라모텔,서울특별시 종로구 숭인동 200-23번지 ,서울특별시 종로구 난계로29길 62 (숭인동),37.5737106034014,127.019778250623,20050111,,1,,,,,2020-05-09 02:40:00.0,여관업,0.0,18.0,0.0
619,빙고 호스텔(BINGO HOSTEL),서울특별시 종로구 인사동 258번지 ,서울특별시 종로구 종로 63-13 (인사동),37.5708769086825,126.984624605223,19940328,,1,,,,,2018-08-31 23:59:59.0,여관업,16.0,0.0,16.0
620,동명,서울특별시 종로구 창신동 463-1번지 ,서울특별시 종로구 종로46길 11 (창신동),37.571029137167,127.010869169423,19710802,,1,,,,,2019-06-06 02:40:00.0,여관업,10.0,0.0,10.0
621,리베라,서울특별시 종로구 창신동 216번지 ,서울특별시 종로구 종로 329-3 (창신동),37.5729583616726,127.014141378306,19851231,,1,,,,,2018-08-31 23:59:59.0,여관업,13.0,0.0,13.0
622,호텔 컬리넌,서울특별시 종로구 낙원동 142번지 ,서울특별시 종로구 수표로26길 6 (낙원동),37.5719579063101,126.989386976638,20130425,,1,,,,,2018-08-31 23:59:59.0,숙박업 기타,0.0,50.0,0.0
623,종로원,서울특별시 종로구 익선동 29 ,서울특별시 종로구 돈화문로11나길 59 (익선동),37.5750854576479,126.989588260669,19880222,,1,,,,,2022-01-27 02:40:00.0,여관업,29.0,0.0,18.0
624,HAH (JUST4U 2.0),서울특별시 종로구 종로6가 96-1번지 ,서울특별시 종로구 종로 269-8 (종로6가),37.5715422998914,127.008046319542,19760209,,1,,,,,2018-08-31 23:59:59.0,여관업,13.0,0.0,9.0
625,호텔 일성,서울특별시 종로구 창신동 459-20번지 ,서울특별시 종로구 종로48길 23 (창신동),37.5712928462308,127.011929074355,19980609,,1,,,,,2018-08-31 23:59:59.0,여인숙업,2.0,9.0,0.0
626,준오 호텔,서울특별시 종로구 관훈동 106,서울특별시 종로구 인사동16길 6 (관훈동),37.575017290578,126.984242826008,20180111,,1,,,,,2021-12-06 00:04:00.0,숙박업 기타,,,
627,스카이호텔,서울특별시 종로구 관철동 28-1,서울특별시 종로구 삼일대로 388-5 (관철동),37.5692265111914,126.988147887675,20030807,,1,,,,,2021-12-07 23:08:00.0,여관업,,,
628,반도여관,서울특별시 종로구 공평동 39-3번지 ,,,,19811021,,3,20140227,,,,2018-08-31 23:59:59.0,여관업,10.0,17.0,9.0
629,미정,서울특별시 종로구 낙원동 195-4번지 ,서울특별시 종로구 돈화문로5길 36 (낙원동),37.5707349497652,126.990009844047,19830426,,1,,,,,2019-06-06 02:40:00.0,여관업,4.0,10.0,11.0
630,H 호텔,서울특별시 종로구 관철동 23번지 ,서울특별시 종로구 종로16길 18 (관철동),,,19790706,,1,,,,,2020-04-10 02:40:00.0,여관업,4.0,35.0,12.0
631,창경호텔,서울특별시 종로구 원남동 197-1번지 ,서울특별시 종로구 동순라길 130 (원남동),37.5758372017583,126.996415728303,19830707,,1,,,,,2019-12-19 02:40:00.0,여관업,0.0,19.0,7.0
632,종로하우스,서울특별시 종로구 효제동 240-2번지 ,서울특별시 종로구 대학로2길 25-4 (효제동),37.571762815465,127.003502347441,19931022,,1,,,,,2020-05-08 02:40:00.0,여관업,14.0,0.0,13.0
633,메이플레이스 호텔 서울 동대문,,서울특별시 종로구 율곡로 179 (원남동),37.5761050250796,126.998746145679,20140721,,1,,,,,2018-08-31 23:59:59.0,관광호텔,0.0,107.0,0.0
634,호텔큐비,서울특별시 종로구 창신동 385 ,서울특별시 종로구 종로 322-10 (창신동),37.571858329608,127.013431644079,19840116,,1,,,,,2022-03-24 02:40:00.0,여관업,7.0,18.0,18.0
635,호스텔 바닐라 1,서울특별시 종로구 창신동 581-8번지 ,서울특별시 종로구 창신길 28-7 (창신동),37.5728678619015,127.01114903994,19630726,,1,,,,,2019-06-06 02:40:00.0,여관업,10.0,0.0,10.0
636,하이게스트하우스(Hi guesthouse),서울특별시 종로구 관훈동 13-2번지 ,서울특별시 종로구 인사동길 30-9 (관훈동),37.5736460337336,126.986134701839,19860326,,1,,,,,2019-12-01 02:40:00.0,여관업,0.0,13.0,5.0
637,호텔가온골든파크,서울특별시 종로구 창신동 406-4 ,서울특별시 종로구 종로44길 77-0 (창신동),37.5708938559578,127.014598189536,19891215,,1,,,,,2021-05-09 02:40:00.0,여관업,23.0,24.0,0.0
638,수송게스트하우스,서울특별시 종로구 수송동 48번지 ,서울특별시 종로구 율곡로4길 59 (수송동),37.5730560055427,126.981170425279,19870126,,1,,,,,2019-01-24 02:40:00.0,여관업,16.0,14.0,30.0
639,유앤피,서울특별시 종로구 사직동 262-1 ,서울특별시 종로구 인왕산로 19 (사직동),37.5755924608212,126.965501922875,19830426,,1,,,,,2021-07-09 02:40:00.0,여관업,3.0,20.0,18.0
640,국일장,서울특별시 종로구 돈의동 75-1번지 ,서울특별시 종로구 수표로26길 18 (돈의동),37.5720847332504,126.990040340553,19880507,,1,,,,,2019-06-06 02:40:00.0,여관업,12.0,11.0,11.0
641,쉬고(shigo),서울특별시 종로구 숭인동 1064번지 ,서울특별시 종로구 숭인동길 14-8 (숭인동),37.5757454670695,127.022000418657,19681104,,1,,,,,2018-10-26 02:36:01.0,여관업,13.0,0.0,13.0
642,목시 서울 명동,서울특별시 중구 충무로1가 21-17,서울특별시 중구 명동8나길 38 (충무로1가),37.5617094550686,126.982674651463,20221125,,1,,,,,2021-10-31 22:07:00.0,관광호텔,,,
643,부티크호텔케이(BHK 01),서울특별시 종로구 관철동 21,서울특별시 종로구 삼일대로 388-7 (관철동),37.5692575170731,126.988264359646,20081231,,1,,,,,2021-12-06 21:01:00.0,일반호텔,,,
644,H.H 모텔,서울특별시 종로구 관훈동 99,서울특별시 종로구 인사동14길 7 (관훈동),37.5748374925693,126.984549416792,19850822,,1,,,,,2021-12-09 00:03:00.0,여관업,,,
645,명신,서울특별시 종로구 창신동 459-26,서울특별시 종로구 종로48길 15-2 (창신동),37.5716190944548,127.011950181186,19680208,,3,20230112,,,,2022-11-30 23:04:00.0,여인숙업,,,
646,호텔 라붐,서울특별시 종로구 낙원동 164-3,서울특별시 종로구 돈화문로9길 37 (낙원동),37.5714976969626,126.989600193101,19961030,,1,,,,,2022-11-30 22:02:00.0,여관업,,,
647,호텔아비숑,,서울특별시 종로구 율곡로6길 19 (운니동),37.5764362310889,126.989615921057,20010502,,1,,,,,2020-11-17 02:40:00.0,여관업,0.0,40.0,0.0
648,HOTEL 동양장,서울특별시 종로구 숭인동 249 ,서울특별시 종로구 종로58길 12 (숭인동),37.5728441654767,127.017771330797,19880202,,1,,,,,2021-03-28 02:40:00.0,여관업,7.0,12.0,17.0
649,나포레 호텔,서울특별시 종로구 관수동 113-1번지 ,서울특별시 종로구 수표로18가길 17 (관수동),37.5689619412274,126.990750934299,20141205,,1,,,,,2018-08-31 23:59:59.0,일반호텔,0.0,52.0,0.0
650,레몬트리 호텔(Lemon Tree Hotel),서울특별시 종로구 돈의동 59 ,서울특별시 종로구 돈화문로5가길 39 (돈의동),37.5723624134818,126.991086827866,19880826,,1,,,,,2020-06-27 02:40:00.0,여관업,0.0,26.0,31.0
651,와이키키,서울특별시 종로구 숭인동 1409 ,서울특별시 종로구 난계로29길 19-3 (숭인동),37.5741704862171,127.022225792677,19871017,,1,,,,,2020-08-23 02:40:00.0,여관업,0.0,19.0,7.0
652,브라운도트 호텔,서울특별시 종로구 낙원동 169-1번지 외1필지(170번지) ,"서울특별시 종로구 수표로22길 5 (낙원동,외1필지(170번지))",37.5712957865295,126.989629652483,20031209,,1,,,,,2019-12-07 02:40:00.0,여관업,0.0,50.0,0.0
653,케이디호스텔7,서울특별시 종로구 숭인동 217-26 케이디오피스텔 ,"서울특별시 종로구 종로62길 17, 케이디오피스텔 7층 (숭인동)",37.5732101490959,127.019487533277,20210119,,1,,,,,2021-01-21 00:23:03.0,관광호텔,,3.0,
654,KD-ONE8,서울특별시 종로구 숭인동 217-26 케이디오피스텔 ,"서울특별시 종로구 종로62길 17, 케이디오피스텔 8층 (숭인동)",37.5732101490959,127.019487533277,20210119,,1,,,,,2021-09-09 02:40:00.0,관광호텔,0.0,3.0,0.0
655,KD-ONE9,서울특별시 종로구 숭인동 217-26 케이디오피스텔 ,"서울특별시 종로구 종로62길 17, 케이디오피스텔 9층 (숭인동)",37.5732101490959,127.019487533277,20210119,,1,,,,,2021-01-21 00:23:03.0,관광호텔,,3.0,
656,이화,서울특별시 종로구 효제동 244번지 ,서울특별시 종로구 대학로2길 23 (효제동),37.5715911808022,127.00333254273,19880907,,1,,,,,2019-06-20 02:40:00.0,여관업,12.0,0.0,12.0
657,필 하우스(FILL HOUSE),서울특별시 종로구 종로6가 118번지 ,서울특별시 종로구 종로43길 8 (종로6가),37.571593774585,127.00762647449,19831115,,1,,,,,2019-12-11 02:40:00.0,여관업,0.0,8.0,10.0
658,스위스장,서울특별시 종로구 충신동 150-250번지 ,서울특별시 종로구 율곡로 230-23 (충신동),37.575561482489,127.004046469566,19900124,,1,,,,,2018-08-31 23:59:59.0,여관업,7.0,15.0,22.0
659,화진,서울특별시 종로구 창신동 376-1번지 ,,37.5719333043185,127.013326496323,19880616,,3,20040210,,,,2018-08-31 23:59:59.0,여인숙업,9.0,,
660,유일,서울특별시 종로구 관수동 143-3번지 ,,37.5692176591532,126.989841953329,19810401,,3,20041229,,,,2018-08-31 23:59:59.0,여관업,7.0,10.0,10.0
661,화성장,서울특별시 종로구 낙원동 92번지 ,,37.5730710255927,126.988738522152,19991101,,3,20060228,,,,2018-08-31 23:59:59.0,여관업,15.0,14.0,14.0
662,고창,서울특별시 종로구 창신동 416-5번지 ,,37.5709550515343,127.013696136027,19890907,,3,19990204,,,,2018-08-31 23:59:59.0,여인숙업,11.0,0.0,11.0
663,정원,서울특별시 종로구 평창동 186-0번지 ,,,,19760209,,3,20010226,,,,2018-08-31 23:59:59.0,여인숙업,12.0,0.0,0.0
664,동묘,서울특별시 종로구 숭인동 235-4번지 ,,37.5722937844945,127.019259651627,19730227,,3,19950308,,,,2018-08-31 23:59:59.0,여인숙업,13.0,0.0,1.0
665,숭천,서울특별시 종로구 숭인동 72-81번지 ,,37.574253577165,127.018453593426,19720708,,3,19960104,,,,2018-08-31 23:59:59.0,여인숙업,13.0,0.0,1.0
666,신도,서울특별시 종로구 홍파동 93번지 ,,,,19831223,,3,20130201,,,,2018-08-31 23:59:59.0,여관업,11.0,,
667,북악파크관광호텔,서울특별시 종로구 평창동 113-1번지 ,,37.6110597444544,126.977017772559,19741029,,3,20040630,,,,2018-08-31 23:59:59.0,관광호텔,37.0,67.0,104.0
668,대성,서울특별시 종로구 창신동 401-17번지 ,,,,19831011,,3,20061116,,,,2018-08-31 23:59:59.0,여인숙업,10.0,,1.0
669,양지,서울특별시 종로구 연건동 190-16번지 ,,37.5755607133324,127.002553311516,19870428,,3,20050531,,,,2018-08-31 23:59:59.0,여인숙업,9.0,,
670,비즈,서울특별시 종로구 관수동 31-2 ,서울특별시 종로구 수표로20길 16-6 (관수동),37.5696395613365,126.990516197627,19760209,,3,20200831,,,,2020-09-02 02:40:00.0,여인숙업,10.0,0.0,1.0
671,비즈모텔,서울특별시 종로구 관수동 21-10번지 ,서울특별시 종로구 수표로18길 17 (관수동),,,19791004,,3,20180605,,,,2018-08-31 23:59:59.0,여관업,13.0,5.0,18.0
672,복성,서울특별시 종로구 종로5가 281-9번지 ,,37.5702585736062,127.006378581417,19670222,,3,20061116,,,,2018-08-31 23:59:59.0,여인숙업,13.0,,
673,보강,서울특별시 종로구 창신동 462-8번지 ,,37.571263172563,127.011328331626,19710710,,3,20050201,,,,2018-08-31 23:59:59.0,여인숙업,10.0,,
674,가든,서울특별시 종로구 홍파동 92번지 ,,,,19931022,,3,20130527,,,,2018-08-31 23:59:59.0,여관업,11.0,,11.0
675,프레이져 스위트,서울특별시 종로구 낙원동 272번지 ,,37.5730079037521,126.987334399767,20050725,,3,20070907,,,,2018-08-31 23:59:59.0,일반호텔,,213.0,
676,선일,서울특별시 종로구 숭인동 226-6번지 ,서울특별시 종로구 종로60길 19 (숭인동),37.572848863487,127.018850351311,19710710,,3,20180531,,,,2018-08-31 23:59:59.0,여인숙업,11.0,0.0,1.0
677,미시간모텔,서울특별시 종로구 숭인동 201-25 숭인장여관 ,서울특별시 종로구 난계로29길 43 (숭인동),37.5738044676613,127.020935757012,20180111,,3,20210118,,,,2021-01-20 02:40:00.0,숙박업 기타,0.0,30.0,0.0
678,올인모텔,서울특별시 종로구 관수동 18-1 ,서울특별시 종로구 수표로18길 5 (관수동),37.5694351642765,126.989897955078,19830930,,3,20210413,,,,2021-04-15 02:40:00.0,여관업,0.0,36.0,34.0
679,현대,서울특별시 종로구 청진동 124-1번지 ,,37.5709617749066,126.981437983842,19841213,,3,20071204,,,,2018-08-31 23:59:59.0,여관업,15.0,,15.0
680,한일,서울특별시 종로구 청진동 21-1번지 ,,37.5717074365143,126.98086105519,19961015,,3,20080602,,,,2018-08-31 23:59:59.0,여관업,20.0,6.0,26.0
681,은하장,서울특별시 종로구 평동 80-0번지 ,,,,19670511,,3,19980310,,,,2018-08-31 23:59:59.0,여관업,0.0,0.0,10.0
682,삼화,서울특별시 종로구 무악동 46-13번지 ,서울특별시 종로구 통일로12가길 6-3 (무악동),,,19830329,,3,20170418,,,,2018-08-31 23:59:59.0,여관업,13.0,,13.0
683,태화,서울특별시 종로구 무악동 45-59번지 ,,,,19850626,,3,19991104,,,,2018-08-31 23:59:59.0,여관업,10.0,0.0,10.0
684,황실장,서울특별시 종로구 중학동 66-0번지 ,,,,19870818,,3,19981009,,,,2018-08-31 23:59:59.0,여관업,12.0,0.0,12.0
685,유화장,서울특별시 종로구 낙원동 181번지 ,,37.571022078963,126.989799372619,19910302,,3,20030821,,,,2018-08-31 23:59:59.0,여관업,31.0,,31.0
686,대도장,서울특별시 종로구 연지동 248-0번지 ,,37.5721641705977,126.999896536434,19861031,,3,19980525,,,,2018-08-31 23:59:59.0,여관업,20.0,0.0,12.0
687,그린파크,서울특별시 종로구 익선동 56-3번지 ,,,,19950512,,3,20000706,,,,2018-08-31 23:59:59.0,여관업,0.0,26.0,0.0
688,삼오,서울특별시 종로구 수송동 46-10번지 ,,37.5732552233211,126.981794561575,19951020,,3,20110615,,,,2018-08-31 23:59:59.0,여관업,11.0,22.0,
689,이화,서울특별시 종로구 숭인동 201-6번지 ,,37.5738593194268,127.02154117246,19851127,,3,19921214,,,,2018-08-31 23:59:59.0,여관업,12.0,10.0,10.0
690,대명장,서울특별시 종로구 효제동 173-1번지 ,,37.572060532092,127.00519298088,19851204,,3,19930408,,,,2018-08-31 23:59:59.0,여관업,15.0,5.0,9.0
691,세검,서울특별시 종로구 부암동 232-0번지 ,,37.593664362143,126.964161983217,19860118,,3,19960125,,,,2018-08-31 23:59:59.0,여관업,4.0,3.0,3.0
692,경춘,서울특별시 종로구 원남동 133-1번지 ,,37.5767990400837,126.997444268882,19860110,,3,19950901,,,,2018-08-31 23:59:59.0,여관업,19.0,6.0,6.0
693,세운,서울특별시 종로구 종로4가 74번지 ,,37.5702412992087,126.996315252273,19830326,,3,19970220,,,,2018-08-31 23:59:59.0,여관업,5.0,5.0,5.0
694,백금여관,서울특별시 종로구 창신동 148-1번지 ,,37.5726144557746,127.012510563718,19601219,,3,19931221,,,,2018-08-31 23:59:59.0,여관업,14.0,0.0,14.0
695,송원,서울특별시 종로구 평창동 182-25번지 ,,37.6063518177397,126.96684627428,19830926,,3,19971212,,,,2018-08-31 23:59:59.0,여관업,0.0,0.0,15.0
696,동림,서울특별시 종로구 창신동 581-22번지 ,,37.5728910700317,127.011539695736,19760209,,3,20060831,,,,2018-08-31 23:59:59.0,여관업,10.0,,10.0
697,금성여관,서울특별시 종로구 효제동 245-1번지 ,서울특별시 종로구 대학로2길 9-1 (효제동),37.5716629206895,127.002494994727,19870224,,3,20181115,,,,2018-11-17 02:36:30.0,여관업,8.0,0.0,0.0
698,보안여관,서울특별시 종로구 통의동 2-1번지 ,,37.5790626714898,126.973666093445,20020125,,3,20060510,,,,2018-08-31 23:59:59.0,여관업,12.0,,
699,용덕여관,서울특별시 종로구 충신동 65번지 ,,37.5750327866939,127.003810865532,19800703,,3,20011231,,,,2018-08-31 23:59:59.0,여관업,6.0,6.0,6.0
700,아산,서울특별시 종로구 낙원동 163-0번지 ,,37.5713391383015,126.98978914161,19840727,,3,19931213,,,,2018-08-31 23:59:59.0,여관업,16.0,7.0,7.0
701,호스텔코리아 10호점,서울특별시 종로구 숭인동 200-33 엘리시앙오피스텔 ,"서울특별시 종로구 종로 382, 엘리시앙오피스텔 2층 (숭인동)",37.5739540303275,127.019908383361,20140203,,3,20201210,,,,2020-12-24 02:40:00.0,관광호텔,0.0,9.0,0.0
702,미오하우스,서울특별시 종로구 종로5가 314-7 청오가방도매상가 ,"서울특별시 종로구 청계천로 229, 청오가방도매상가 (종로5가)",37.5701340995047,127.003025038619,20140122,,3,20210809,,,,2021-08-11 02:40:00.0,관광호텔,0.0,10.0,0.0
703,24게스트하우스 종로점,서울특별시 종로구 관철동 7-5 ,서울특별시 종로구 삼일대로17길 8 (관철동),37.5692716380823,126.987162071611,20140214,,3,20200901,,,,2020-09-03 02:40:00.0,관광호텔,0.0,25.0,0.0
704,JONGRO ALICE,서울특별시 종로구 익선동 24 ,서울특별시 종로구 삼일대로32길 46 (익선동),37.5754682829546,126.989505795111,20180618,,3,20201008,,,,2020-10-21 02:40:00.0,관광호텔,0.0,8.0,0.0
705,Hostel STAY NOW,서울특별시 종로구 익선동 89 ,서울특별시 종로구 삼일대로32가길 38 (익선동),37.5745492870821,126.989717951905,20130512,,3,20201127,,,,2020-12-02 02:40:00.0,관광호텔,0.0,20.0,0.0
706,성심,서울특별시 종로구 관철동 6-4번지 ,,37.5696643003913,126.987240221868,19840521,,3,19940923,,,,2018-08-31 23:59:59.0,여관업,10.0,0.0,4.0
707,삼일,서울특별시 종로구 창신동 438-5번지 ,,37.5702614906157,127.010853323657,19700821,,3,19950726,,,,2018-08-31 23:59:59.0,여인숙업,34.0,0.0,1.0
708,홍성장,서울특별시 종로구 가회동 1번지 ,,37.5840957563217,126.986866068622,19770207,,3,20061116,,,,2018-08-31 23:59:59.0,여인숙업,12.0,,3.0
709,미도장,서울특별시 종로구 청진동 246-0번지 ,,37.571069743454,126.978928832522,19830208,,3,19911112,,,,2018-08-31 23:59:59.0,여관업,22.0,5.0,5.0
710,영진,서울특별시 종로구 숭인동 70-25번지 ,,37.5746313974415,127.016397591769,19710330,,3,20040421,,,,2018-08-31 23:59:59.0,여인숙업,8.0,,1.0
711,세느,서울특별시 종로구 낙원동 122번지 ,서울특별시 종로구 돈화문로11길 28-5 (낙원동),37.5728254223763,126.989818823399,19870616,,3,20180821,,,,2018-08-31 23:59:59.0,여관업,12.0,5.0,12.0
712,옥루,서울특별시 종로구 누하동 222-3번지 ,,37.578913495705,126.969309076446,19680118,,3,20060821,,,,2018-08-31 23:59:59.0,여관업,8.0,,7.0
713,성도,서울특별시 종로구 내수동 120-0번지 ,,,,19760209,,3,20000607,,,,2018-08-31 23:59:59.0,여인숙업,10.0,0.0,2.0
714,호텔가온 인사동,서울특별시 종로구 인사동 80-1번지 ,서울특별시 종로구 삼일대로 401-8 (인사동),37.5705611277251,126.987024769656,19821224,,3,20200103,,,,2020-01-05 02:40:00.0,여관업,0.0,36.0,2.0
715,피카소,서울특별시 종로구 효제동 19-1번지 ,서울특별시 종로구 대학로 42-7 (효제동),37.574702691756,127.002748669723,19830110,,3,20190313,,,,2019-03-15 02:40:00.0,여관업,16.0,12.0,22.0
716,보안,서울특별시 종로구 통의동 2-1번지 ,,37.5790626714898,126.973666093445,19710218,,3,20021230,,,,2018-08-31 23:59:59.0,여관업,10.0,0.0,1.0
717,아쿠아,서울특별시 종로구 낙원동 152-1번지 ,,37.571780021893,126.990102074078,19890106,,3,20021120,,,,2018-08-31 23:59:59.0,여관업,5.0,31.0,0.0
718,상원,서울특별시 종로구 낙원동 35-0번지 ,,37.573832576811,126.988128592747,19880411,,3,19980629,,,,2018-08-31 23:59:59.0,관광호텔,15.0,45.0,0.0
